city,lat,lng,country,iso2,population,population_proper
London,51.5072,-0.1275,United Kingdom,GB,10979000,8825001
Birmingham,52.48,-1.9025,United Kingdom,GB,2897303,1137100
Manchester,53.4794,-2.2453,United Kingdom,GB,2705000,547627
Leeds,53.7997,-1.5492,United Kingdom,GB,1901934,789194
Newcastle,55.0077,-1.6578,United Kingdom,GB,1650000,879996
Birstall,52.6736,-1.12,United Kingdom,GB,1424216,1424216
Glasgow,55.8609,-4.2514,United Kingdom,GB,985290,633120
Liverpool,53.4,-2.9833,United Kingdom,GB,864122,513441
Portsmouth,50.8058,-1.0872,United Kingdom,GB,855679,238800
Southampton,50.9,-1.4,United Kingdom,GB,855569,269781
Nottingham,52.95,-1.15,United Kingdom,GB,768638,321500
Bristol,51.45,-2.5833,United Kingdom,GB,724000,463400
Sheffield,53.3833,-1.4667,United Kingdom,GB,685368,518090
Kingston upon Hull,53.7444,-0.3325,United Kingdom,GB,573300,260200
Leicester,52.6333,-1.1333,United Kingdom,GB,508916,329839
Edinburgh,55.953,-3.189,United Kingdom,GB,488050,488050
Caerdydd,51.4833,-3.1833,United Kingdom,GB,479000,361469
Stoke-on-Trent,53,-2.1833,United Kingdom,GB,372775,249008
Coventry,52.4081,-1.5106,United Kingdom,GB,362690,362690
Reading,51.4542,-0.9731,United Kingdom,GB,337108,230046
Belfast,54.5964,-5.93,United Kingdom,GB,333871,333871
Derby,52.9167,-1.4667,United Kingdom,GB,270500,248700
Plymouth,50.3714,-4.1422,United Kingdom,GB,267918,267918
Wolverhampton,52.5833,-2.1333,United Kingdom,GB,254406,250970
Abertawe,51.6167,-3.95,United Kingdom,GB,245508,245508
Milton Keynes,52.04,-0.76,United Kingdom,GB,229941,207057
Aberdeen,57.15,-2.11,United Kingdom,GB,214610,200680
Norwich,52.63,1.297,United Kingdom,GB,213166,195971
Luton,51.8783,-0.4147,United Kingdom,GB,213052,213052
Islington,51.544,-0.1027,United Kingdom,GB,206125,206125
Swindon,51.56,-1.78,United Kingdom,GB,192599,192599
Croydon,51.3727,-0.1099,United Kingdom,GB,192064,192064
Basildon,51.5761,0.4886,United Kingdom,GB,185900,185900
Bournemouth,50.72,-1.88,United Kingdom,GB,183491,183491
Worthing,50.8147,-0.3714,United Kingdom,GB,183000,109120
Ipswich,52.0594,1.1556,United Kingdom,GB,180000,180000
Middlesbrough,54.5767,-1.2355,United Kingdom,GB,174700,140545
Sunderland,54.9061,-1.3811,United Kingdom,GB,174286,174286
Ilford,51.5588,0.0855,United Kingdom,GB,168168,168168
Warrington,53.3917,-2.5972,United Kingdom,GB,165456,165456
Slough,51.51,-0.59,United Kingdom,GB,164455,119070
Huddersfield,53.645,-1.7798,United Kingdom,GB,162949,162949
Oxford,51.7519,-1.2578,United Kingdom,GB,154600,152000
York,53.9583,-1.0803,United Kingdom,GB,153717,153717
Poole,50.7167,-1.9833,United Kingdom,GB,151500,144800
Harrow,51.5836,-0.3464,United Kingdom,GB,149246,149246
Dundee,56.462,-2.9707,United Kingdom,GB,148270,148270
Saint Albans,51.755,-0.336,United Kingdom,GB,147373,82146
Telford,52.6766,-2.4469,United Kingdom,GB,142723,142723
Blackpool,53.8142,-3.0503,United Kingdom,GB,139720,139305
Brighton,50.8429,-0.1313,United Kingdom,GB,134293,134293
Sale,53.424,-2.322,United Kingdom,GB,134022,134022
Enfield,51.6522,-0.0808,United Kingdom,GB,132640,132640
Tottenham,51.588,-0.072,United Kingdom,GB,129237,129237
Bolton,53.578,-2.429,United Kingdom,GB,128139,128139
Newport,51.5833,-3,United Kingdom,GB,128060,128060
High Wycombe,51.6287,-0.7482,United Kingdom,GB,125257,120256
Exeter,50.7167,-3.5333,United Kingdom,GB,124180,124180
Solihull,52.413,-1.778,United Kingdom,GB,123187,123187
Romford,51.5768,0.1801,United Kingdom,GB,122854,122854
Preston,53.759,-2.699,United Kingdom,GB,122719,122719
Gateshead,54.95,-1.6,United Kingdom,GB,120046,120046
Blackburn,53.748,-2.482,United Kingdom,GB,117963,117963
Cheltenham,51.9,-2.0667,United Kingdom,GB,116447,116447
Basingstoke,51.2667,-1.0876,United Kingdom,GB,113776,107355
Maidstone,51.272,0.529,United Kingdom,GB,113137,107627
Colchester,51.8917,0.903,United Kingdom,GB,111921,111921
Chelmsford,51.7361,0.4798,United Kingdom,GB,111511,111511
Wythenshawe,53.392,-2.264,United Kingdom,GB,110000,110000
Doncaster,53.515,-1.133,United Kingdom,GB,109805,109805
Rotherham,53.43,-1.357,United Kingdom,GB,109691,109691
Walthamstow,51.59,0,United Kingdom,GB,109424,109424
Rochdale,53.6136,-2.161,United Kingdom,GB,107926,107926
Bedford,52.135,-0.47,United Kingdom,GB,106940,92407
Crawley,51.1092,-0.1872,United Kingdom,GB,106597,106597
Mansfield,53.15,-1.2,United Kingdom,GB,106556,77551
Dagenham,51.5397,0.1422,United Kingdom,GB,106247,106247
Stockport,53.4083,-2.1494,United Kingdom,GB,105878,105878
Darlington,54.527,-1.5526,United Kingdom,GB,105564,92363
Fyfield,51.739,0.2722,United Kingdom,GB,104234,104234
Gillingham,51.385,0.55,United Kingdom,GB,104157,104157
Salford,53.483,-2.2931,United Kingdom,GB,103886,103886
Eastbourne,50.77,0.28,United Kingdom,GB,103745,101547
Wigan,53.5448,-2.6318,United Kingdom,GB,103608,103608
Hounslow,51.4668,-0.375,United Kingdom,GB,103337,103337
Wembley,51.5528,-0.2979,United Kingdom,GB,102856,90045
Saint Helens,53.4541,-2.7461,United Kingdom,GB,102629,102629
Worcester,52.192,-2.22,United Kingdom,GB,101328,101328
Wakefield,53.68,-1.49,United Kingdom,GB,99251,99251
Lincoln,53.2344,-0.5386,United Kingdom,GB,97541,97541
Hemel Hempstead,51.7526,-0.4692,United Kingdom,GB,97500,94932
Watford,51.655,-0.3957,United Kingdom,GB,96800,90301
Oldham,53.5444,-2.1169,United Kingdom,GB,96555,96555
Sutton Coldfield,52.563,-1.822,United Kingdom,GB,95107,95107
Kettering,52.3931,-0.7229,United Kingdom,GB,93475,56226
Hastings,50.85,0.57,United Kingdom,GB,92855,91053
Hartlepool,54.69,-1.21,United Kingdom,GB,92000,88855
Hove,50.8352,-0.1758,United Kingdom,GB,91900,91900
Barnsley,53.5537,-1.4791,United Kingdom,GB,91297,91297
Southport,53.6475,-3.0053,United Kingdom,GB,90381,90381
Bath,51.38,-2.36,United Kingdom,GB,88859,88859
Birkenhead,53.393,-3.014,United Kingdom,GB,88818,88818
Grimsby,53.5595,-0.068,United Kingdom,GB,88243,88243
Halifax,53.725,-1.863,United Kingdom,GB,88134,88134
Bromley,51.407,0.021,United Kingdom,GB,87889,87889
Fulham,51.4828,-0.195,United Kingdom,GB,87161,87161
Nuneaton,52.523,-1.468,United Kingdom,GB,86552,86552
Derry,54.9917,-7.3417,United Kingdom,GB,85016,85016
Ealing,51.5175,-0.2988,United Kingdom,GB,85014,85014
Stockton-on-Tees,54.57,-1.32,United Kingdom,GB,85000,82729
Woolwich,51.488,0.063,United Kingdom,GB,84959,84959
Bracknell,51.416,-0.749,United Kingdom,GB,84469,77256
Hayes,51.5127,-0.4211,United Kingdom,GB,83564,83564
Edmonton,51.6154,-0.0708,United Kingdom,GB,82472,82472
Scunthorpe,53.5809,-0.6502,United Kingdom,GB,82334,79977
Redditch,52.3069,-1.9492,United Kingdom,GB,81919,81919
Chester,53.19,-2.89,United Kingdom,GB,79645,79645
Dudley,52.508,-2.089,United Kingdom,GB,79379,79379
Bury,53.593,-2.298,United Kingdom,GB,78723,78723
Brixton,51.463,-0.106,United Kingdom,GB,78536,78536
West Bromwich,52.519,-1.995,United Kingdom,GB,77997,77997
Paisley,55.8466,-4.4236,United Kingdom,GB,77310,77220
Guildford,51.2365,-0.5703,United Kingdom,GB,77057,77057
Chatham,51.37,0.52,United Kingdom,GB,76792,76792
Edgware,51.6185,-0.2729,United Kingdom,GB,76506,76506
East Ham,51.5323,0.0554,United Kingdom,GB,76186,76186
Weston-super-Mare,51.346,-2.977,United Kingdom,GB,76143,76143
East Kilbride,55.7645,-4.1771,United Kingdom,GB,75390,75120
South Shields,54.995,-1.43,United Kingdom,GB,75337,75337
Carlisle,54.891,-2.944,United Kingdom,GB,75306,75306
Newcastle under Lyme,53.0109,-2.2278,United Kingdom,GB,75082,75082
Harrogate,53.9919,-1.5378,United Kingdom,GB,75070,73576
Ashford,51.1465,0.8676,United Kingdom,GB,74204,67528
Gravesend,51.4415,0.3685,United Kingdom,GB,74000,66000
Burnley,53.789,-2.248,United Kingdom,GB,73021,73021
Burton upon Trent,52.8019,-1.6367,United Kingdom,GB,72299,72299
Crewe,53.099,-2.44,United Kingdom,GB,71722,71722
Shrewsbury,52.708,-2.754,United Kingdom,GB,71715,71715
Gosport,50.7948,-1.1243,United Kingdom,GB,71529,71529
Lisburn,54.5167,-6.0333,United Kingdom,GB,71465,71465
Lowestoft,52.48,1.75,United Kingdom,GB,71010,70945
Rugby,52.37,-1.26,United Kingdom,GB,70628,70627
Uxbridge,51.5404,-0.4778,United Kingdom,GB,70560,70560
Inverness,57.4781,-4.2233,United Kingdom,GB,70000,47290
Keighley,53.867,-1.911,United Kingdom,GB,70000,53331
Southall,51.5121,-0.3779,United Kingdom,GB,69857,69857
Maidenhead,51.5217,-0.7177,United Kingdom,GB,69309,63580
Stafford,52.8066,-2.1171,United Kingdom,GB,68472,68472
Wimbledon,51.422,-0.208,United Kingdom,GB,68187,68187
Walsall,52.58,-1.98,United Kingdom,GB,67594,67594
Tynemouth,55.017,-1.423,United Kingdom,GB,67519,67519
Washington,54.9,-1.52,United Kingdom,GB,67085,67085
Loughborough,52.7705,-1.2046,United Kingdom,GB,66611,59932
Chingford,51.631,0.016,United Kingdom,GB,66211,66211
Thornton Heath,51.4002,-0.1086,United Kingdom,GB,65812,65812
Finchley,51.599,-0.187,United Kingdom,GB,65812,65812
Wrecsam,53.046,-2.993,United Kingdom,GB,65692,61603
Torquay,50.47,-3.53,United Kingdom,GB,65245,65245
Farnborough,51.29,-0.75,United Kingdom,GB,65034,65034
Kensington,51.5,-0.19,United Kingdom,GB,64681,64681
Waterlooville,50.88,-1.03,United Kingdom,GB,64350,64350
Hornchurch,51.5565,0.2128,United Kingdom,GB,63583,63583
Mitcham,51.4009,-0.1517,United Kingdom,GB,63393,63393
Feltham,51.4496,-0.4089,United Kingdom,GB,63368,63368
Stourbridge,52.4575,-2.1479,United Kingdom,GB,63298,63298
Rochester,51.375,0.5,United Kingdom,GB,62982,62982
Dewsbury,53.691,-1.633,United Kingdom,GB,62945,62945
Woking,51.3162,-0.561,United Kingdom,GB,62796,62796
Rhondda,51.6159,-3.4175,United Kingdom,GB,62545,62545
Sittingbourne,51.34,0.74,United Kingdom,GB,62500,62500
Acton,51.5135,-0.2707,United Kingdom,GB,62480,62480
Twickenham,51.449,-0.337,United Kingdom,GB,62148,62148
Runcorn,53.341,-2.729,United Kingdom,GB,61789,61789
Scarborough,54.2773,-0.4017,United Kingdom,GB,61749,61749
Wandsworth,51.455,-0.192,United Kingdom,GB,61594,61594
Widnes,53.363,-2.728,United Kingdom,GB,61464,61464
Margate,51.385,1.3838,United Kingdom,GB,61223,61223
Bangor,54.66,-5.67,United Kingdom,GB,61011,61011
Morecambe,54.073,-2.87,United Kingdom,GB,60768,34768
Taunton,51.019,-3.1,United Kingdom,GB,60479,60479
Wallasey,53.4158,-3.0233,United Kingdom,GB,60284,60284
Royal Tunbridge Wells,51.132,0.263,United Kingdom,GB,59947,57772
Barking,51.54,0.08,United Kingdom,GB,59068,59068
Aylesbury,51.8168,-0.8124,United Kingdom,GB,58740,58740
Ruislip,51.576,-0.433,United Kingdom,GB,58217,58217
Halesowen,52.4502,-2.0509,United Kingdom,GB,58135,58135
Streatham,51.4279,-0.1235,United Kingdom,GB,58055,58055
Livingston,55.8834,-3.5157,United Kingdom,GB,57030,57030
Clacton-on-Sea,51.7918,1.1457,United Kingdom,GB,56874,50548
Barrow in Furness,54.1108,-3.2261,United Kingdom,GB,56745,56745
Hereford,52.0565,-2.716,United Kingdom,GB,55955,55955
Ellesmere Port,53.279,-2.897,United Kingdom,GB,55715,55715
Kidderminster,52.3885,-2.249,United Kingdom,GB,55530,55530
Canterbury,51.28,1.08,United Kingdom,GB,55240,54880
Corby,52.4914,-0.6965,United Kingdom,GB,54927,54927
Brentwood,51.6204,0.305,United Kingdom,GB,54885,52586
Hamilton,55.777,-4.039,United Kingdom,GB,54230,54080
Dunfermline,56.0719,-3.4393,United Kingdom,GB,54050,53100
Braintree,51.878,0.55,United Kingdom,GB,53477,53477
Weymouth,50.613,-2.457,United Kingdom,GB,53068,53068
Hendon,51.5837,-0.2252,United Kingdom,GB,52972,52972
Altrincham,53.3838,-2.3547,United Kingdom,GB,52419,52419
Lancaster,54.047,-2.801,United Kingdom,GB,52234,52234
Barri,51.405,-3.27,United Kingdom,GB,51502,51502
Macclesfield,53.2581,-2.1274,United Kingdom,GB,51482,51482
Bootle,53.4457,-2.9891,United Kingdom,GB,51394,51394
Stratford,51.5423,-0.0026,United Kingdom,GB,51387,51387
Horsham,51.062,-0.325,United Kingdom,GB,50934,50934
Cumbernauld,55.945,-3.994,United Kingdom,GB,50430,50430
Rowley Regis,52.48,-2.06,United Kingdom,GB,50257,50257
Kirkcaldy,56.1107,-3.1674,United Kingdom,GB,50180,50010
Crosby,53.4872,-3.0343,United Kingdom,GB,50044,50044
Leith,55.98,-3.17,United Kingdom,GB,50030,50030
Royal Leamington Spa,52.292,-1.537,United Kingdom,GB,49662,49662
Llanelli,51.684,-4.163,United Kingdom,GB,49591,37050
Batley,53.716,-1.627,United Kingdom,GB,49448,49448
Pen-y-Bont ar Ogwr,51.5072,-3.5784,United Kingdom,GB,49404,49404
Wellingborough,52.2939,-0.6964,United Kingdom,GB,49128,49128
Sutton in Ashfield,53.125,-1.261,United Kingdom,GB,49023,49023
Paignton,50.4353,-3.5625,United Kingdom,GB,49021,49021
Eltham,51.451,0.052,United Kingdom,GB,48964,48964
Cwmbran,51.653,-3.021,United Kingdom,GB,48535,48535
Christchurch,50.73,-1.78,United Kingdom,GB,48368,48368
Morden,51.4015,-0.1949,United Kingdom,GB,48233,48233
Durham,54.7761,-1.5733,United Kingdom,GB,48069,48069
Barnet,51.6444,-0.1997,United Kingdom,GB,47359,47359
West Bridgford,52.932,-1.127,United Kingdom,GB,47109,47109
Perth,56.397,-3.437,United Kingdom,GB,46960,46960
Stretford,53.4466,-2.3086,United Kingdom,GB,46910,46910
Banbury,52.061,-1.336,United Kingdom,GB,46853,46853
Beckenham,51.408,-0.022,United Kingdom,GB,46844,46844
Greenford,51.5299,-0.3488,United Kingdom,GB,46787,46787
Wokingham,51.41,-0.84,United Kingdom,GB,46745,46745
Folkestone,51.081,1.166,United Kingdom,GB,46698,46698
Welwyn Garden City,51.8062,-0.1932,United Kingdom,GB,46619,46619
Ayr,55.458,-4.629,United Kingdom,GB,46490,46490
Kilmarnock,55.6111,-4.4957,United Kingdom,GB,46450,46450
Havant,50.85,-0.98,United Kingdom,GB,45826,45826
Chippenham,51.4585,-2.1158,United Kingdom,GB,45620,45620
Erith,51.48,0.1778,United Kingdom,GB,45345,45345
Hinckley,52.5413,-1.3725,United Kingdom,GB,45249,45249
Ashton,53.4897,-2.0952,United Kingdom,GB,45198,45198
Winchester,51.0632,-1.308,United Kingdom,GB,45184,35200
Surbiton,51.394,-0.307,United Kingdom,GB,45132,45132
Yeovil,50.9452,-2.637,United Kingdom,GB,45000,45000
Catford,51.4452,-0.0207,United Kingdom,GB,44905,44905
Grantham,52.918,-0.638,United Kingdom,GB,44580,34592
Morley,53.7492,-1.6023,United Kingdom,GB,44440,44440
Cheshunt,51.702,-0.035,United Kingdom,GB,44000,44000
Coatbridge,55.8625,-4.0266,United Kingdom,GB,43920,43920
Wallsend,54.991,-1.534,United Kingdom,GB,43826,43826
Merthyr Tudful,51.743,-3.378,United Kingdom,GB,43820,43820
Bexhill,50.8424,0.4676,United Kingdom,GB,43478,43478
Sidcup,51.4263,0.1024,United Kingdom,GB,43109,43109
Kingston upon Thames,51.4103,-0.2995,United Kingdom,GB,43013,43013
Middleton,53.555,-2.187,United Kingdom,GB,42972,42972
King’s Lynn,52.7543,0.3976,United Kingdom,GB,42800,42800
Fareham,50.85,-1.18,United Kingdom,GB,42210,42210
Greenock,55.95,-4.765,United Kingdom,GB,41990,41990
Urmston,53.4487,-2.3747,United Kingdom,GB,41825,41825
Worksop,53.3042,-1.1244,United Kingdom,GB,41820,41820
Sutton,51.3656,-0.1963,United Kingdom,GB,41483,41483
Caerphilly,51.578,-3.218,United Kingdom,GB,41402,41402
Bridgwater,51.128,-2.993,United Kingdom,GB,41276,41276
Leigh,53.4975,-2.515,United Kingdom,GB,41275,41275
Newbury,51.401,-1.323,United Kingdom,GB,41075,41075
Welling,51.4594,0.1097,United Kingdom,GB,41000,41000
Kingswood,51.46,-2.505,United Kingdom,GB,40734,40734
Bury Saint Edmunds,52.2474,0.7183,United Kingdom,GB,40664,40664
Kirkby,53.4826,-2.892,United Kingdom,GB,40472,40472
Ramsgate,51.336,1.416,United Kingdom,GB,40408,40408
Tonbridge,51.1987,0.2764,United Kingdom,GB,40356,38657
Salisbury,51.074,-1.7936,United Kingdom,GB,40302,40302
Castleford,53.716,-1.356,United Kingdom,GB,40210,40210
Bishops Stortford,51.872,0.1725,United Kingdom,GB,40089,38202
Abingdon,51.667,-1.283,United Kingdom,GB,39809,33130
Aberdare,51.713,-3.445,United Kingdom,GB,39550,39550
Farnham,51.215,-0.799,United Kingdom,GB,39488,39488
Aldridge,52.606,-1.9179,United Kingdom,GB,39348,26988
Hatfield,51.762,-0.228,United Kingdom,GB,39201,39201
Cleethorpes,53.5533,-0.0215,United Kingdom,GB,38996,38996
Skelmersdale,53.55,-2.776,United Kingdom,GB,38813,38813
Tipton,52.5259,-2.0751,United Kingdom,GB,38777,38777
Eccles,53.4824,-2.339,United Kingdom,GB,38756,38756
Great Yarmouth,52.606,1.729,United Kingdom,GB,38693,38693
Ilkeston,52.971,-1.309,United Kingdom,GB,38640,38640
Herne Bay,51.37,1.13,United Kingdom,GB,38563,38385
Andover,51.208,-1.48,United Kingdom,GB,38290,38290
Glenrothes,56.198,-3.178,United Kingdom,GB,38240,38240
Camberley,51.335,-0.742,United Kingdom,GB,38038,38038
Stirling,56.1166,-3.9369,United Kingdom,GB,37810,37610
Arnold,53.005,-1.127,United Kingdom,GB,37768,37768
Long Eaton,52.898,-1.271,United Kingdom,GB,37760,37760
Blyth,55.126,-1.514,United Kingdom,GB,37339,37339
Port Talbot,51.5906,-3.7986,United Kingdom,GB,37276,37276
Bletchley,51.994,-0.732,United Kingdom,GB,37114,37114
Leighton Buzzard,51.9165,-0.6617,United Kingdom,GB,37000,37000
Fleet,51.2834,-0.8456,United Kingdom,GB,37000,37000
Beeston,52.927,-1.215,United Kingdom,GB,37000,37000
Small Heath,52.4629,-1.8542,United Kingdom,GB,36898,36898
Houghton le Spring,54.841,-1.468,United Kingdom,GB,36746,36746
Whitley Bay,55.0456,-1.4443,United Kingdom,GB,36623,36623
Airdrie,55.86,-3.98,United Kingdom,GB,36620,36620
Grays,51.475,0.33,United Kingdom,GB,36601,36601
Denton,53.4554,-2.1122,United Kingdom,GB,36591,36591
Aldershot,51.248,-0.758,United Kingdom,GB,36322,36322
Redcar,54.618,-1.069,United Kingdom,GB,35692,35692
Walkden,53.5239,-2.3991,United Kingdom,GB,35616,35616
Kenton,51.5878,-0.3086,United Kingdom,GB,35600,35600
Leyland,53.692,-2.697,United Kingdom,GB,35578,35578
Woodley,51.453,-0.902,United Kingdom,GB,35470,35470
Accrington,53.7534,-2.3638,United Kingdom,GB,35456,35456
Pont-y-pŵl,51.703,-3.041,United Kingdom,GB,35447,35447
Bridlington,54.0819,-0.1923,United Kingdom,GB,35369,35369
Falkirk,56.0011,-3.7835,United Kingdom,GB,35168,35168
Billingham,54.61,-1.27,United Kingdom,GB,35165,35165
Boston,52.974,-0.0214,United Kingdom,GB,35124,35124
Dunstable,51.886,-0.521,United Kingdom,GB,35000,35000
Ewell,51.35,-0.249,United Kingdom,GB,34872,34872
Chorley,53.653,-2.632,United Kingdom,GB,34667,34667
Spalding,52.7858,-0.1529,United Kingdom,GB,34613,34613
Exmouth,50.62,-3.413,United Kingdom,GB,34432,34432
North Shields,55.0097,-1.4448,United Kingdom,GB,34423,34423
Colwyn Bay,53.29,-3.7,United Kingdom,GB,34284,34284
Irvine,55.6201,-4.6614,United Kingdom,GB,34010,33698
Hyde,53.4474,-2.082,United Kingdom,GB,34003,34003
Wisbech,52.664,0.16,United Kingdom,GB,33933,33933
Lichfield,52.6835,-1.8265,United Kingdom,GB,33816,33816
Wickford,51.6114,0.5207,United Kingdom,GB,33486,33486
Hitchin,51.947,-0.283,United Kingdom,GB,33352,33352
Dumfries,55.07,-3.603,United Kingdom,GB,33320,33320
Letchworth,51.978,-0.23,United Kingdom,GB,33249,33249
Huyton,53.41,-2.843,United Kingdom,GB,33193,33193
Strood,51.393,0.478,United Kingdom,GB,33182,33182
Trowbridge,51.32,-2.21,United Kingdom,GB,33108,33108
Glossop,53.443,-1.949,United Kingdom,GB,33000,33000
Pontypridd,51.602,-3.342,United Kingdom,GB,32694,32694
Stroud,51.744,-2.215,United Kingdom,GB,32670,32670
Bicester,51.9,-1.15,United Kingdom,GB,32642,32642
Winsford,53.194,-2.52,United Kingdom,GB,32610,32610
Windsor,51.4791,-0.6095,United Kingdom,GB,32608,32184
Motherwell,55.7839,-3.9852,United Kingdom,GB,32480,32480
Brighouse,53.707,-1.794,United Kingdom,GB,32360,32360
Wigston Magna,52.5812,-1.093,United Kingdom,GB,32321,32321
Swadlincote,52.774,-1.557,United Kingdom,GB,32219,32219
Rayleigh,51.5864,0.6049,United Kingdom,GB,32150,32150
Whitstable,51.361,1.026,United Kingdom,GB,32100,30195
Ecclesfield,53.4429,-1.4698,United Kingdom,GB,32073,31609
Ryde,50.7271,-1.1618,United Kingdom,GB,32072,32072
Earley,51.433,-0.933,United Kingdom,GB,32036,32036
Borehamwood,51.6578,-0.2723,United Kingdom,GB,31955,31955
Bexleyheath,51.459,0.138,United Kingdom,GB,31929,31929
Prestwich,53.5333,-2.2833,United Kingdom,GB,31693,31693
Darwen,53.698,-2.461,United Kingdom,GB,31570,31570
Epsom,51.336,-0.267,United Kingdom,GB,31489,31489
Warwick,52.28,-1.59,United Kingdom,GB,31345,31345
Pinner,51.5932,-0.3894,United Kingdom,GB,31130,31130
Rutherglen,55.8286,-4.2139,United Kingdom,GB,31120,31120
Loughton,51.6494,0.0735,United Kingdom,GB,31106,31106
Dover,51.1295,1.3089,United Kingdom,GB,31022,31022
Pontefract,53.691,-1.312,United Kingdom,GB,30881,30881
Saint Neots,52.228,-0.27,United Kingdom,GB,30811,30811
Bedworth,52.475,-1.477,United Kingdom,GB,30648,30648
Burgess Hill,50.9535,-0.1262,United Kingdom,GB,30635,30635
Northolt,51.547,-0.362,United Kingdom,GB,30304,30304
Farnworth,53.5452,-2.3999,United Kingdom,GB,30271,30271
Wishaw,55.7739,-3.9189,United Kingdom,GB,30250,30250
Harpenden,51.8175,-0.3524,United Kingdom,GB,30240,30240
Deal,51.2226,1.4006,United Kingdom,GB,30085,30085
Radcliffe,53.5615,-2.3268,United Kingdom,GB,29950,29950
Carshalton,51.3652,-0.1676,United Kingdom,GB,29917,29917
Plympton,50.386,-4.051,United Kingdom,GB,29899,29899
Bulwell,53.001,-1.197,United Kingdom,GB,29771,29771
Cambuslang,55.819,-4.1671,United Kingdom,GB,29690,29100
Sevenoaks,51.2781,0.1874,United Kingdom,GB,29506,29506
Northfleet,51.44,0.34,United Kingdom,GB,29474,29474
Cramlington,55.082,-1.585,United Kingdom,GB,29405,29405
Rushden,52.288,-0.601,United Kingdom,GB,29272,29272
Bromsgrove,52.3353,-2.0579,United Kingdom,GB,29237,29237
Nelson,53.8346,-2.218,United Kingdom,GB,29135,29135
Beverley,53.845,-0.427,United Kingdom,GB,29110,29110
Cannock,52.691,-2.027,United Kingdom,GB,29018,29018
Hanwell,51.5189,-0.3376,United Kingdom,GB,28768,28768
Stanford le Hope,51.514,0.4244,United Kingdom,GB,28765,28765
Kendal,54.326,-2.745,United Kingdom,GB,28586,28586
Willenhall,52.5798,-2.0605,United Kingdom,GB,28480,28480
Wood Green,51.5981,-0.1149,United Kingdom,GB,28453,28453
Heywood,53.59,-2.219,United Kingdom,GB,28205,28205
Bearsden,55.9192,-4.3332,United Kingdom,GB,28120,28120
Reddish,53.4383,-2.1613,United Kingdom,GB,28052,28052
Billericay,51.628,0.4184,United Kingdom,GB,27998,27998
Darlaston,52.5708,-2.0457,United Kingdom,GB,27821,27821
Littlehampton,50.8094,-0.5409,United Kingdom,GB,27795,27795
Ashington,55.181,-1.568,United Kingdom,GB,27764,27764
Newton Mearns,55.7716,-4.3347,United Kingdom,GB,27660,26600
Yate,51.5402,-2.411,United Kingdom,GB,27603,21789
Jarrow,54.9797,-1.4804,United Kingdom,GB,27526,27526
Witney,51.78,-1.49,United Kingdom,GB,27522,27522
Stratford-upon-Avon,52.1928,-1.7064,United Kingdom,GB,27445,27445
Shotley Bridge,54.87,-1.86,United Kingdom,GB,27394,27394
Ashford,51.434,-0.464,United Kingdom,GB,27382,27382
Ormskirk,53.5665,-2.8869,United Kingdom,GB,27343,27343
Longton,52.9877,-2.1327,United Kingdom,GB,27214,27214
Melton Mowbray,52.7661,-0.886,United Kingdom,GB,27158,27158
Haverhill,52.08,0.44,United Kingdom,GB,27041,27041
Didcot,51.606,-1.241,United Kingdom,GB,26920,26920
Clifton,52.904,-1.177,United Kingdom,GB,26835,26835
Chichester,50.8365,-0.7792,United Kingdom,GB,26795,26795
Hertford,51.795,-0.078,United Kingdom,GB,26783,26783
Highbury,51.552,-0.097,United Kingdom,GB,26664,26664
Newton Aycliffe,54.62,-1.58,United Kingdom,GB,26633,26633
Fern Down,50.81,-1.9,United Kingdom,GB,26559,17650
Congleton,53.162,-2.217,United Kingdom,GB,26482,26482
Cheadle Hulme,53.3761,-2.1897,United Kingdom,GB,26479,26479
East Grinstead,51.129,-0.007,United Kingdom,GB,26383,26383
Thatcham,51.405,-1.264,United Kingdom,GB,26217,26217
Frome,51.2279,-2.3215,United Kingdom,GB,26203,26203
Burntwood,52.6831,-1.92,United Kingdom,GB,26049,26049
Clydebank,55.8997,-4.4006,United Kingdom,GB,25970,25970
Fleetwood,53.923,-3.015,United Kingdom,GB,25939,25939
Bournville,52.4299,-1.9355,United Kingdom,GB,25938,25938
Shenley Brook End,52.009,-0.789,United Kingdom,GB,25828,25828
Bushey,51.6429,-0.3604,United Kingdom,GB,25763,25763
New Milton,50.76,-1.65,United Kingdom,GB,25717,25717
Northfield,52.408,-1.963,United Kingdom,GB,25707,25707
Coulsdon,51.3211,-0.1386,United Kingdom,GB,25695,25695
Bilston,52.566,-2.0728,United Kingdom,GB,25576,25576
Newton Abbot,50.529,-3.61,United Kingdom,GB,25556,23580
Wellington,52.7001,-2.5157,United Kingdom,GB,25554,25554
Newport,50.701,-1.2883,United Kingdom,GB,25496,23957
Oldbury,52.505,-2.0159,United Kingdom,GB,25488,25488
Bishop Auckland,54.6566,-1.6768,United Kingdom,GB,25455,25455
Longbridge,52.395,-1.979,United Kingdom,GB,25410,25410
Bloxwich,52.614,-2.004,United Kingdom,GB,25401,25401
Upminster,51.5557,0.2512,United Kingdom,GB,25361,25361
Witham,51.7978,0.6373,United Kingdom,GB,25353,25353
Workington,54.6365,-3.5549,United Kingdom,GB,25207,25207
Kingswinford,52.4981,-2.1657,United Kingdom,GB,25191,25191
Rhyl,53.321,-3.48,United Kingdom,GB,25149,25149
Daventry,52.26,-1.16,United Kingdom,GB,25026,25026
Hindley,53.5355,-2.5658,United Kingdom,GB,25001,25001
Rainham,51.36,0.61,United Kingdom,GB,25000,25000
Portishead,51.484,-2.7626,United Kingdom,GB,25000,25000
Pitsea,51.569,0.504,United Kingdom,GB,25000,25000
Westhoughton,53.549,-2.529,United Kingdom,GB,24974,24974
Broadstairs,51.3589,1.4394,United Kingdom,GB,24903,24903
Consett,54.85,-1.83,United Kingdom,GB,24828,24828
Thornaby on Tees,54.5556,-1.3049,United Kingdom,GB,24741,24741
Wilmslow,53.325,-2.239,United Kingdom,GB,24497,24497
Kings Norton,52.4072,-1.9272,United Kingdom,GB,24380,24380
Thetford,52.41,0.74,United Kingdom,GB,24340,24340
Elgin,57.65,-3.315,United Kingdom,GB,24320,24320
Chester-le-Street,54.8594,-1.5699,United Kingdom,GB,24227,24227
Farnley,53.7876,-1.6159,United Kingdom,GB,24213,24213
Great Sankey,53.3918,-2.6383,United Kingdom,GB,24211,24211
Golborne,53.4758,-2.5943,United Kingdom,GB,24169,24169
Plymstock,50.3569,-4.09,United Kingdom,GB,24103,24103
Bognor Regis,50.7824,-0.6764,United Kingdom,GB,24064,24064
Barnstaple,51.08,-4.06,United Kingdom,GB,24033,24033
Rugeley,52.7599,-1.9388,United Kingdom,GB,24033,24033
Eastleigh,50.9667,-1.35,United Kingdom,GB,24011,24011
Ashton in Makerfield,53.487,-2.641,United Kingdom,GB,24000,24000
Whitehaven,54.548,-3.5855,United Kingdom,GB,23986,23986
Rickmansworth,51.6383,-0.4659,United Kingdom,GB,23973,23973
Littleover,52.906,-1.505,United Kingdom,GB,23958,23958
Caversham,51.467,-0.973,United Kingdom,GB,23885,23885
Oadby,52.5987,-1.0763,United Kingdom,GB,23849,23849
Bishopbriggs,55.9046,-4.225,United Kingdom,GB,23820,23540
Kidsgrove,53.0874,-2.2478,United Kingdom,GB,23756,23756
Huntingdon,52.3364,-0.1717,United Kingdom,GB,23732,23732
Stalybridge,53.4834,-2.04,United Kingdom,GB,23731,23731
Stanmore,51.618,-0.314,United Kingdom,GB,23700,23700
Felixstowe,51.9639,1.3515,United Kingdom,GB,23689,23689
Marple,53.397,-2.061,United Kingdom,GB,23687,23687
Perry Barr,52.5249,-1.9042,United Kingdom,GB,23652,23652
Gosforth,55.007,-1.623,United Kingdom,GB,23620,23620
Droitwich,52.267,-2.153,United Kingdom,GB,23504,23504
Arbroath,56.561,-2.586,United Kingdom,GB,23490,23490
Seaford,50.77,0.1,United Kingdom,GB,23463,23463
Evesham,52.092,-1.947,United Kingdom,GB,23428,23428
Whitefield,53.5521,-2.2992,United Kingdom,GB,23283,23283
Penwortham,53.74,-2.72,United Kingdom,GB,23047,23047
Harborne,52.46,-1.95,United Kingdom,GB,23001,23001
Swinton,53.5122,-2.3412,United Kingdom,GB,22931,22931
Market Harborough,52.4775,-0.9206,United Kingdom,GB,22911,22911
Penistone,53.525,-1.629,United Kingdom,GB,22909,22909
Gainsborough,53.4016,-0.7732,United Kingdom,GB,22841,22841
Walton upon Thames,51.3868,-0.4133,United Kingdom,GB,22834,22834
Erdington,52.5236,-1.8378,United Kingdom,GB,22828,22828
Haywards Heath,51.0048,-0.0979,United Kingdom,GB,22800,22800
Stratton Saint Margaret,51.586,-1.762,United Kingdom,GB,22698,22698
Droylsden,53.4828,-2.1582,United Kingdom,GB,22689,22689
Wednesfield,52.5998,-2.0817,United Kingdom,GB,22646,22646
Calverley,53.8266,-1.6908,United Kingdom,GB,22594,4328
Leigh-on-Sea,51.5425,0.6535,United Kingdom,GB,22509,22509
Formby,53.5586,-3.0666,United Kingdom,GB,22419,22419
Kenilworth,52.341,-1.566,United Kingdom,GB,22413,22413
Pudsey,53.797,-1.663,United Kingdom,GB,22408,22408
Guiseley,53.875,-1.706,United Kingdom,GB,22347,22347
Alfreton,53.097,-1.38,United Kingdom,GB,22302,22302
March,52.551,0.088,United Kingdom,GB,22298,22298
Litherland,53.4727,-2.999,United Kingdom,GB,22242,22242
Yeadon,53.869,-1.688,United Kingdom,GB,22233,22233
Acomb,53.955,-1.126,United Kingdom,GB,22215,22215
Buxton,53.259,-1.911,United Kingdom,GB,22215,22215
Newton in Makerfield,53.45,-2.633,United Kingdom,GB,22114,22114
Penarth,51.43,-3.17,United Kingdom,GB,22083,22083
Horley,51.174,-0.172,United Kingdom,GB,22076,22076
Northwood,51.601,-0.4176,United Kingdom,GB,22047,22047
East Retford,53.3228,-0.9431,United Kingdom,GB,22013,22013
Atherton,53.523,-2.495,United Kingdom,GB,22000,22000
Rawtenstall,53.699,-2.291,United Kingdom,GB,22000,22000
Musselburgh,55.942,-3.054,United Kingdom,GB,21900,20840
Renfrew,55.8791,-4.3868,United Kingdom,GB,21854,21854
Belper,53.029,-1.475,United Kingdom,GB,21822,21822
Reigate,51.237,-0.206,United Kingdom,GB,21820,21820
Sheldon,52.45,-1.7666,United Kingdom,GB,21817,21817
Godalming,51.18,-0.61,United Kingdom,GB,21804,21804
Falmouth,50.15,-5.07,United Kingdom,GB,21797,21797
Kilwinning,55.655,-4.703,United Kingdom,GB,21693,16460
Potters Bar,51.698,-0.183,United Kingdom,GB,21639,21639
Camborne,50.213,-5.3,United Kingdom,GB,21600,21600
Linslade,51.9243,-0.6774,United Kingdom,GB,21590,21590
Chesham,51.712,-0.612,United Kingdom,GB,21483,21483
Richmond,51.456,-0.301,United Kingdom,GB,21469,21469
Chandlers Ford,50.984,-1.3792,United Kingdom,GB,21436,21436
Darton,53.585,-1.5325,United Kingdom,GB,21345,21345
Royton,53.566,-2.121,United Kingdom,GB,21284,21284
Clevedon,51.438,-2.854,United Kingdom,GB,21281,21281
Dronfield,53.3024,-1.4664,United Kingdom,GB,21261,21261
Ossett,53.68,-1.58,United Kingdom,GB,21231,21231
Penzance,50.119,-5.537,United Kingdom,GB,21200,21200
Waltham Abbey,51.6846,0.0004,United Kingdom,GB,21149,21149
Omagh,54.59,-7.29,United Kingdom,GB,21056,16326
Caterham,51.2803,-0.0816,United Kingdom,GB,21030,21030
Woodlesford,53.7567,-1.453,United Kingdom,GB,21010,21010
Maesteg,51.61,-3.65,United Kingdom,GB,21000,20612
Normanton,53.697,-1.416,United Kingdom,GB,20872,20872
Wallington,51.3647,-0.1403,United Kingdom,GB,20850,20850
Ripley,53.05,-1.407,United Kingdom,GB,20807,20807
Sandhurst,51.349,-0.8,United Kingdom,GB,20803,20803
Leek,53.108,-2.0234,United Kingdom,GB,20768,20768
Alloa,56.116,-3.793,United Kingdom,GB,20730,20730
Boscombe,50.725,-1.84,United Kingdom,GB,20719,20719
Llandudno,53.325,-3.826,United Kingdom,GB,20701,20701
Failsworth,53.5102,-2.1575,United Kingdom,GB,20680,20680
Kirkstall,53.816,-1.602,United Kingdom,GB,20673,20673
Kirkby in Ashfield,53.099,-1.245,United Kingdom,GB,20672,20672
Bellshill,55.8165,-4.0262,United Kingdom,GB,20650,20290
Crowborough,51.06,0.16,United Kingdom,GB,20607,20607
Shoreham-by-Sea,50.834,-0.273,United Kingdom,GB,20547,20547
Dumbarton,55.95,-4.5667,United Kingdom,GB,20527,20527
Hythe,50.869,-1.399,United Kingdom,GB,20526,20526
Hailsham,50.8647,0.2577,United Kingdom,GB,20476,20476
Maghull,53.5174,-2.9449,United Kingdom,GB,20444,20444
Bathgate,55.9024,-3.6431,United Kingdom,GB,20363,20363
Rothwell,53.7485,-1.478,United Kingdom,GB,20354,20354
Newquay,50.412,-5.0757,United Kingdom,GB,20342,20342
Hoddesdon,51.759,-0.015,United Kingdom,GB,20250,20250
Seaham,54.84,-1.34,United Kingdom,GB,20172,20172
Peterlee,54.76,-1.33,United Kingdom,GB,20164,20164
Halewood,53.3599,-2.84,United Kingdom,GB,20116,20116
Ely,52.3981,0.2622,United Kingdom,GB,20112,20112
Killingworth,55.0318,-1.5557,United Kingdom,GB,20079,20079
Horwich,53.592,-2.54,United Kingdom,GB,20067,20067
Bispham,53.852,-3.041,United Kingdom,GB,20001,20001
Antrim,54.7173,-6.2055,United Kingdom,GB,19986,19986
Wetherby,53.9276,-1.3839,United Kingdom,GB,19979,19979
Saint Austell,50.3386,-4.7922,United Kingdom,GB,19958,19958
Irlam,53.445,-2.422,United Kingdom,GB,19933,19933
Northwich,53.259,-2.518,United Kingdom,GB,19924,19924
Biddulph,53.12,-2.17,United Kingdom,GB,19892,19892
Spennymoor,54.7,-1.59,United Kingdom,GB,19816,19816
Barrhead,55.8016,-4.388,United Kingdom,GB,19813,17610
Garforth,53.792,-1.388,United Kingdom,GB,19811,19811
Tewkesbury,51.99,-2.16,United Kingdom,GB,19778,19778
Stamford,52.656,-0.484,United Kingdom,GB,19701,19701
Kirkintilloch,55.9357,-4.1547,United Kingdom,GB,19700,19700
Davyhulme,53.4559,-2.3683,United Kingdom,GB,19634,19634
Skegness,53.14,0.34,United Kingdom,GB,19579,19579
Burnham-on-Sea,51.2376,-2.9935,United Kingdom,GB,19576,19576
Abbots Langley,51.701,-0.416,United Kingdom,GB,19574,19574
Mirfield,53.6807,-1.6888,United Kingdom,GB,19563,19563
Tiverton,50.903,-3.488,United Kingdom,GB,19544,19544
Goole,53.6992,-0.8692,United Kingdom,GB,19518,19518
South Ockendon,51.5207,0.2956,United Kingdom,GB,19460,19460
Romsey,50.989,-1.4966,United Kingdom,GB,19441,19441
Kempston,52.114,-0.497,United Kingdom,GB,19440,19440
Adel,53.8489,-1.5849,United Kingdom,GB,19430,19430
Liversedge,53.7067,-1.69,United Kingdom,GB,19420,19420
Hampton,51.422,-0.367,United Kingdom,GB,19372,19372
Great Linford,52.068,-0.7637,United Kingdom,GB,19350,19350
Faversham,51.3177,0.8928,United Kingdom,GB,19316,19316
Dukinfield,53.4739,-2.0828,United Kingdom,GB,19306,19306
Stowmarket,52.19,1,United Kingdom,GB,19280,19280
Neath,51.66,-3.81,United Kingdom,GB,19258,19258
Ecclesall,53.362,-1.498,United Kingdom,GB,19211,19211
Molesey,51.401,-0.363,United Kingdom,GB,19088,19088
Cirencester,51.719,-1.968,United Kingdom,GB,19076,19076
Dorchester,50.7154,-2.4367,United Kingdom,GB,19060,19060
Monkseaton,55.043,-1.459,United Kingdom,GB,19044,19044
Linlithgow,55.9791,-3.6105,United Kingdom,GB,19000,19000
Southbourne,50.722,-1.798,United Kingdom,GB,18960,18960
Horsforth,53.8341,-1.6429,United Kingdom,GB,18895,18895
Prestatyn,53.331,-3.405,United Kingdom,GB,18849,18849
Kilbirnie,55.755,-4.686,United Kingdom,GB,18829,7340
Lancing,50.832,-0.319,United Kingdom,GB,18810,18810
Ware,51.8109,-0.0314,United Kingdom,GB,18799,18799
Truro,50.26,-5.051,United Kingdom,GB,18766,18766
Eastwood,53.018,-1.304,United Kingdom,GB,18612,18612
East Dereham,52.681,0.94,United Kingdom,GB,18609,18609
Ebbw Vale,51.7779,-3.2117,United Kingdom,GB,18558,18558
Peterhead,57.5091,-1.7832,United Kingdom,GB,18537,18537
Appley Bridge,53.579,-2.721,United Kingdom,GB,18500,18500
Berkhampstead,51.76,-0.56,United Kingdom,GB,18500,18100
Rawmarsh,53.4636,-1.3439,United Kingdom,GB,18498,18498
Poulton le Fylde,53.847,-2.995,United Kingdom,GB,18495,18495
Staines-upon-Thames,51.433,-0.517,United Kingdom,GB,18484,18484
Bedlington,55.133,-1.583,United Kingdom,GB,18470,18470
Mill Hill,51.62,-0.23,United Kingdom,GB,18451,18451
Almondbury,53.6344,-1.7489,United Kingdom,GB,18346,18346
Hadleigh,51.5535,0.6095,United Kingdom,GB,18300,18300
Staveley,53.2694,-1.3484,United Kingdom,GB,18247,18247
Fulwood,53.365,-1.544,United Kingdom,GB,18233,18233
Redhill,51.2393,-0.1726,United Kingdom,GB,18163,18163
Aberystwyth,52.414,-4.081,United Kingdom,GB,18093,12250
Sunbury,51.423,-0.424,United Kingdom,GB,18041,18041
Mickleover,52.901,-1.552,United Kingdom,GB,18000,18000
Sandbach,53.146,-2.367,United Kingdom,GB,17976,17976
Madeley,52.637,-2.448,United Kingdom,GB,17935,17935
Grangemouth,56.012,-3.717,United Kingdom,GB,17906,16650
Ramsbottom,53.6484,-2.3169,United Kingdom,GB,17872,17872
Colne,53.8554,-2.1756,United Kingdom,GB,17855,17855
Alton,51.1498,-0.9769,United Kingdom,GB,17816,17816
Portchester,50.842,-1.12,United Kingdom,GB,17789,17789
Guisborough,54.535,-1.0563,United Kingdom,GB,17777,17777
Harwich,51.934,1.266,United Kingdom,GB,17684,17684
Sleaford,52.996,-0.413,United Kingdom,GB,17671,17671
Moreton,53.401,-3.111,United Kingdom,GB,17670,17670
Quedgeley,51.825,-2.28,United Kingdom,GB,17519,17519
Warminster,51.205,-2.181,United Kingdom,GB,17490,17490
Woodhouse,53.358,-1.373,United Kingdom,GB,17450,17450
Bramhall,53.357,-2.164,United Kingdom,GB,17436,17436
Nantwich,53.067,-2.522,United Kingdom,GB,17424,17424
Hednesford,52.7115,-2.0006,United Kingdom,GB,17343,17343
Lewes,50.8756,0.0179,United Kingdom,GB,17297,15988
Houghton Regis,51.9039,-0.5247,United Kingdom,GB,17280,17280
Thornton,53.7898,-1.8504,United Kingdom,GB,17276,17276
Calne,51.438,-2.005,United Kingdom,GB,17274,17274
Heanor,53.014,-1.354,United Kingdom,GB,17251,17251
Friern Barnet,51.6126,-0.1584,United Kingdom,GB,17250,17250
Milton,53.05,-2.142,United Kingdom,GB,17250,17250
Glen Parva,52.5867,-1.1617,United Kingdom,GB,17189,17189
Cottingham,53.7822,-0.4136,United Kingdom,GB,17164,17164
Bideford,51.016,-4.209,United Kingdom,GB,17107,17107
Oswestry,52.8598,-3.0538,United Kingdom,GB,17105,15613
Mosbrough,53.325,-1.362,United Kingdom,GB,17097,17097
Heysham,54.046,-2.894,United Kingdom,GB,17016,17016
Golcar,53.6378,-1.8457,United Kingdom,GB,17000,17000
Westbury,51.26,-2.191,United Kingdom,GB,16989,16989
Heckmondwike,53.708,-1.67,United Kingdom,GB,16986,16986
Clayton,53.782,-1.8135,United Kingdom,GB,16982,16982
Morriston,51.6647,-3.9389,United Kingdom,GB,16928,16928
High Blantyre,55.793,-4.097,United Kingdom,GB,16900,16900
Braunstone,52.616,-1.175,United Kingdom,GB,16850,16850
Haslingden,53.705,-2.328,United Kingdom,GB,16849,16849
Northallerton,54.3378,-1.4285,United Kingdom,GB,16832,15741
Haslemere,51.09,-0.712,United Kingdom,GB,16826,16826
Saint Andrews,56.3404,-2.7955,United Kingdom,GB,16801,16680
Fazakerley,53.4676,-2.9408,United Kingdom,GB,16786,16786
Hatfield,53.58,-1,United Kingdom,GB,16776,16776
Windlesham,51.36,-0.66,United Kingdom,GB,16775,16775
Connahs Quay,53.2179,-3.0573,United Kingdom,GB,16774,16774
Plumstead,51.49,0.09,United Kingdom,GB,16736,16736
Ripon,54.138,-1.524,United Kingdom,GB,16702,16702
Brixham,50.394,-3.516,United Kingdom,GB,16693,16693
Maltby,53.426,-1.21,United Kingdom,GB,16688,16688
Banstead,51.322,-0.204,United Kingdom,GB,16666,16666
Whickham,54.9456,-1.6726,United Kingdom,GB,16652,16652
Keynsham,51.4135,-2.4968,United Kingdom,GB,16641,16641
Johnstone,55.8346,-4.5027,United Kingdom,GB,16625,16090
Cleckheaton,53.725,-1.719,United Kingdom,GB,16622,16622
Newmarket,52.2459,0.4105,United Kingdom,GB,16615,16615
The Mumbles,51.573,-3.9992,United Kingdom,GB,16600,16600
Biggleswade,52.0855,-0.2557,United Kingdom,GB,16551,16551
Cowley,51.733,-1.215,United Kingdom,GB,16500,16500
Hebburn,54.9718,-1.5128,United Kingdom,GB,16492,16492
Enfield Lock,51.6686,-0.026,United Kingdom,GB,16469,16469
Louth,53.3669,-0.0061,United Kingdom,GB,16419,16419
Buckhaven,56.1776,-3.0303,United Kingdom,GB,16391,4220
Stone,52.9,-2.15,United Kingdom,GB,16385,16385
Saint Ives,52.3344,-0.0761,United Kingdom,GB,16384,16384
Denby Dale,53.572,-1.655,United Kingdom,GB,16365,16365
Bangor,53.228,-4.128,United Kingdom,GB,16358,16358
Birstall,53.7343,-1.6609,United Kingdom,GB,16298,16298
Clitheroe,53.8711,-2.3916,United Kingdom,GB,16279,16279
Queensbury,53.7683,-1.8453,United Kingdom,GB,16273,16273
Stepney,51.5152,-0.0462,United Kingdom,GB,16238,16238
Basford,52.978,-1.169,United Kingdom,GB,16207,16207
Saltash,50.408,-4.212,United Kingdom,GB,16184,16184
Giffnock,55.8051,-4.2946,United Kingdom,GB,16178,12300
Tyldesley,53.5166,-2.4667,United Kingdom,GB,16142,16142
East Barnet,51.643,-0.163,United Kingdom,GB,16137,16137
Upton,53.385,-3.099,United Kingdom,GB,16130,16130
Whittlesey,52.558,-0.13,United Kingdom,GB,16058,16058
Worcester Park,51.3752,-0.239,United Kingdom,GB,16031,16031
Porthcawl,51.48,-3.69,United Kingdom,GB,16005,15640
East Finchley,51.5902,-0.1753,United Kingdom,GB,15989,15989
Chertsey,51.3902,-0.5074,United Kingdom,GB,15967,15967
Dawlish,50.581,-3.466,United Kingdom,GB,15954,15954
Penicuik,55.826,-3.22,United Kingdom,GB,15926,15926
Bingley,53.8509,-1.838,United Kingdom,GB,15925,15925
Adwick le Street,53.5677,-1.1931,United Kingdom,GB,15911,15911
Hayes,51.378,0.0192,United Kingdom,GB,15906,15906
Addlestone,51.3695,-0.4901,United Kingdom,GB,15883,15883
Royston,52.0471,-0.0202,United Kingdom,GB,15781,15781
Carterton,51.76,-1.59,United Kingdom,GB,15769,15769
Bebington,53.35,-3.003,United Kingdom,GB,15768,15768
Lymington,50.75,-1.55,United Kingdom,GB,15726,15726
Bonnyrigg,55.8747,-3.1031,United Kingdom,GB,15677,15677
Buckley,53.172,-3.086,United Kingdom,GB,15665,15665
Ince-in-Makerfield,53.5402,-2.599,United Kingdom,GB,15664,15664
Nailsea,51.43,-2.76,United Kingdom,GB,15630,15630
Thundersley,51.57,0.59,United Kingdom,GB,15600,15600
Swinton,53.4877,-1.3149,United Kingdom,GB,15559,15559
Wimborne Minster,50.804,-1.978,United Kingdom,GB,15552,6418
West Ham,51.5347,0.0077,United Kingdom,GB,15551,15551
Saffron Walden,52.022,0.243,United Kingdom,GB,15504,15504
Stoke Gifford,51.517,-2.548,United Kingdom,GB,15494,15494
Shipley,53.833,-1.777,United Kingdom,GB,15483,15483
Todmorden,53.713,-2.096,United Kingdom,GB,15481,15481
Weybridge,51.362,-0.453,United Kingdom,GB,15449,15449
Knaresborough,54.0084,-1.467,United Kingdom,GB,15441,15441
Helensburgh,56.0166,-4.7333,United Kingdom,GB,15430,13640
Port Glasgow,55.934,-4.6906,United Kingdom,GB,15414,14620
Seacombe,53.409,-3.029,United Kingdom,GB,15387,15387
Baildon,53.851,-1.763,United Kingdom,GB,15360,15360
Hemsworth,53.61,-1.35,United Kingdom,GB,15350,15350
Perivale,51.5383,-0.3192,United Kingdom,GB,15339,15339
Wombwell,53.516,-1.4,United Kingdom,GB,15316,15316
Stanley,53.7145,-1.476,United Kingdom,GB,15314,15314
Llantrisant,51.5423,-3.3785,United Kingdom,GB,15313,15313
Broxbourne,51.7495,-0.0216,United Kingdom,GB,15303,15303
Hazel Grove,53.375,-2.111,United Kingdom,GB,15265,15265
Featherstone,53.7,-1.37,United Kingdom,GB,15244,15244
Mexborough,53.4992,-1.283,United Kingdom,GB,15244,15244
Stapleford,52.929,-1.274,United Kingdom,GB,15241,15241
Neston,53.289,-3.074,United Kingdom,GB,15221,15221
Bidston,53.402,-3.078,United Kingdom,GB,15216,15216
Northenden,53.4075,-2.2583,United Kingdom,GB,15200,15200
Penrith,54.6648,-2.7548,United Kingdom,GB,15200,14756
Chellaston,52.8671,-1.4384,United Kingdom,GB,15198,15198
Palmers Green,51.6178,-0.1092,United Kingdom,GB,15162,15162
Totteridge,51.6354,-0.2,United Kingdom,GB,15159,15159
Blaydon,54.963,-1.7187,United Kingdom,GB,15155,15155
New Brighton,53.432,-3.049,United Kingdom,GB,15149,15149
Teignmouth,50.5515,-3.4886,United Kingdom,GB,15129,14749
Newport Pagnell,52.087,-0.722,United Kingdom,GB,15118,15118
Tredegar,51.7776,-3.2407,United Kingdom,GB,15103,15103
Swallownest,53.3623,-1.3251,United Kingdom,GB,15022,15022
Netherton,52.4908,-2.0835,United Kingdom,GB,15017,15017
Hessle,53.7239,-0.4319,United Kingdom,GB,15000,15000
Winkfield,51.4318,-0.7096,United Kingdom,GB,14998,14998
Petersfield,51.0038,-0.9345,United Kingdom,GB,14974,14974
Larkhall,55.737,-3.972,United Kingdom,GB,14951,14740
Sudbury,51.5537,-0.3199,United Kingdom,GB,14950,14950
Wyke,53.7369,-1.77,United Kingdom,GB,14950,14950
Kew Green,51.5308,-0.2248,United Kingdom,GB,14915,14915
Bromborough,53.336,-2.978,United Kingdom,GB,14850,14850
Chislehurst,51.412,0.075,United Kingdom,GB,14831,14831
Ilkley,53.925,-1.822,United Kingdom,GB,14809,14809
Baguley,53.399,-2.276,United Kingdom,GB,14794,14794
Minster,51.421,0.809,United Kingdom,GB,14789,14789
Balham,51.4434,-0.1525,United Kingdom,GB,14751,14751
Prestwick,55.4956,-4.6142,United Kingdom,GB,14750,14720
Banbridge,54.343,-6.26,United Kingdom,GB,14744,14744
Bodmin,50.466,-4.718,United Kingdom,GB,14736,14736
Selby,53.7818,-1.0703,United Kingdom,GB,14731,14731
Conwy,53.28,-3.83,United Kingdom,GB,14723,14723
Tilehurst,51.4579,-1.0406,United Kingdom,GB,14683,14683
Troon,55.54,-4.66,United Kingdom,GB,14680,14680
Melksham,51.371,-2.138,United Kingdom,GB,14677,14677
Wibsey,53.7672,-1.7728,United Kingdom,GB,14671,14671
Great Baddow,51.719,0.507,United Kingdom,GB,14650,14650
Farnborough,51.3591,0.0741,United Kingdom,GB,14632,14632
Skipton,53.962,-2.017,United Kingdom,GB,14623,14623
Lowton,53.471,-2.569,United Kingdom,GB,14605,14605
Burbage,52.5277,-1.3483,United Kingdom,GB,14568,14568
Thorpe Saint Andrew,52.6354,1.3431,United Kingdom,GB,14556,14556
Wellington,50.9755,-3.2243,United Kingdom,GB,14549,14549
Moston,53.5156,-2.1848,United Kingdom,GB,14518,14518
Hythe,51.0716,1.084,United Kingdom,GB,14516,14170
Chelsfield,51.3582,0.1278,United Kingdom,GB,14507,14507
Uckfield,50.97,0.1,United Kingdom,GB,14493,14493
Deysbrook,53.429,-2.934,United Kingdom,GB,14490,14490
Bo’ness,56.0168,-3.6089,United Kingdom,GB,14490,14490
Armthorpe,53.5352,-1.0522,United Kingdom,GB,14457,14457
Southgate,51.6316,-0.1265,United Kingdom,GB,14454,14454
Dollis Hill,51.5641,-0.2341,United Kingdom,GB,14425,14425
Wymondham,52.57,1.116,United Kingdom,GB,14405,14405
Hetton le Hole,54.8208,-1.4488,United Kingdom,GB,14402,14402
Amersham,51.677,-0.603,United Kingdom,GB,14384,14384
West Derby,53.4338,-2.907,United Kingdom,GB,14382,14382
West Drayton,51.5043,-0.4646,United Kingdom,GB,14370,14370
Conisbrough,53.479,-1.227,United Kingdom,GB,14333,14333
Kidbrooke,51.465,0.033,United Kingdom,GB,14300,14300
Rock Ferry,53.373,-3.008,United Kingdom,GB,14298,14298
Shirley,51.3813,-0.0543,United Kingdom,GB,14296,14296
Hawick,55.422,-2.787,United Kingdom,GB,14294,14294
Patcham,50.864,-0.15,United Kingdom,GB,14277,14277
West Wickham,51.3765,-0.0193,United Kingdom,GB,14276,14276
Weston,53.413,-2.798,United Kingdom,GB,14263,14263
Poynton,53.3492,-2.1222,United Kingdom,GB,14260,14260
Seacroft,53.8222,-1.4599,United Kingdom,GB,14246,14246
Maldon,51.7318,0.6758,United Kingdom,GB,14220,14220
Kearsley,53.53,-2.37,United Kingdom,GB,14212,14212
Caerfyrddin,51.856,-4.316,United Kingdom,GB,14185,14185
Leyton,51.5606,-0.0155,United Kingdom,GB,14184,14184
Mackworth,52.9277,-1.5373,United Kingdom,GB,14180,14180
Ashtead,51.31,-0.299,United Kingdom,GB,14169,14169
Wombourn,52.5302,-2.1857,United Kingdom,GB,14157,14157
Smethwick,52.4928,-1.9682,United Kingdom,GB,14146,14146
Childwall,53.395,-2.881,United Kingdom,GB,14085,14085
Cowdenbeath,56.11,-3.35,United Kingdom,GB,14081,11640
Forfar,56.6442,-2.8884,United Kingdom,GB,14048,14048
Redruth,50.233,-5.224,United Kingdom,GB,14018,14018
Morpeth,55.1675,-1.6908,United Kingdom,GB,14017,14017
Marlow,51.57,-0.78,United Kingdom,GB,14004,14004
Pemberton,53.536,-2.6738,United Kingdom,GB,13982,13982
Verwood,50.8815,-1.8785,United Kingdom,GB,13969,13969
Bourne,52.7684,-0.3775,United Kingdom,GB,13961,13961
Ringwood,50.85,-1.78,United Kingdom,GB,13943,13943
Brierley Hill,52.4795,-2.1245,United Kingdom,GB,13935,13935
Streetly,52.577,-1.884,United Kingdom,GB,13934,13934
Milford Haven,51.7142,-5.0427,United Kingdom,GB,13907,13725
Bickley,51.4003,0.0466,United Kingdom,GB,13904,13904
North Hykeham,53.1819,-0.5849,United Kingdom,GB,13884,13884
Rustington,50.8102,-0.5052,United Kingdom,GB,13883,13883
Eastham,53.313,-2.962,United Kingdom,GB,13882,13882
Cosham,50.8424,-1.066,United Kingdom,GB,13830,13830
Kidlington,51.823,-1.291,United Kingdom,GB,13723,13723
Knottingley,53.705,-1.249,United Kingdom,GB,13710,13710
Otley,53.905,-1.687,United Kingdom,GB,13668,13668
Rottingdean,50.815,-0.065,United Kingdom,GB,13651,13651
Allestree,52.9519,-1.4856,United Kingdom,GB,13622,13622
Middlewich,53.192,-2.443,United Kingdom,GB,13595,13595
Bredbury,53.42,-2.113,United Kingdom,GB,13593,13593
Bridport,50.7336,-2.7584,United Kingdom,GB,13569,13569
Rossington,53.4759,-1.0613,United Kingdom,GB,13557,13557
Hilsea,50.83,-1.07,United Kingdom,GB,13552,13552
Clifton,53.9721,-1.0979,United Kingdom,GB,13548,13548
Milngavie,55.9421,-4.3137,United Kingdom,GB,13537,12940
Shepshed,52.7711,-1.2951,United Kingdom,GB,13505,13505
Ystrad Mynach,51.6419,-3.2405,United Kingdom,GB,13500,13500
Little Hulton,53.53,-2.418,United Kingdom,GB,13469,13469
Alexandria,55.98,-4.58,United Kingdom,GB,13444,6860
Rosyth,56.0339,-3.4323,United Kingdom,GB,13440,13440
Chaddesden,52.9301,-1.4383,United Kingdom,GB,13413,13413
Heswall,53.328,-3.099,United Kingdom,GB,13401,13401
Amblecote,52.46,-2.16,United Kingdom,GB,13393,13393
Saint Budeaux,50.4033,-4.1856,United Kingdom,GB,13369,13369
Egg Buckland,50.4006,-4.1136,United Kingdom,GB,13351,13351
Bacup,53.704,-2.199,United Kingdom,GB,13323,13323
Ampthill,52.0263,-0.4906,United Kingdom,GB,13307,13307
Shirebrook,53.2048,-1.2197,United Kingdom,GB,13300,13300
Carluke,55.7337,-3.8343,United Kingdom,GB,13300,13300
Standish,53.586,-2.664,United Kingdom,GB,13278,13278
West Boldon,54.9447,-1.4409,United Kingdom,GB,13271,13271
Dingle,53.3774,-2.9613,United Kingdom,GB,13246,13246
Whitby,54.4858,-0.6206,United Kingdom,GB,13213,13213
Walsall Wood,52.6277,-1.9301,United Kingdom,GB,13207,13207
Southwick,50.836,-0.239,United Kingdom,GB,13195,13195
Knutsford,53.3025,-2.3708,United Kingdom,GB,13191,13191
Broughty Ferry,56.4672,-2.8699,United Kingdom,GB,13155,13155
Hamworthy,50.7207,-2.0109,United Kingdom,GB,13141,13141
Fraserburgh,57.693,-2.005,United Kingdom,GB,13100,13100
Wollaston,52.4619,-2.1663,United Kingdom,GB,13092,13092
Uttoxeter,52.898,-1.86,United Kingdom,GB,13089,13089
Great Driffield,54.005,-0.438,United Kingdom,GB,13080,13080
Chard,50.8728,-2.9587,United Kingdom,GB,13074,13074
Goodmayes,51.5584,0.1119,United Kingdom,GB,13069,13069
Pendlebury,53.5075,-2.3154,United Kingdom,GB,13069,13069
Sudbury,52.0417,0.7282,United Kingdom,GB,13063,13063
Milnrow,53.6101,-2.1111,United Kingdom,GB,13061,13061
Holborn,51.5172,-0.1182,United Kingdom,GB,13023,13023
Brackley,52.032,-1.147,United Kingdom,GB,13018,13018
Midsomer Norton,51.2842,-2.4817,United Kingdom,GB,13000,13000
Corsham,51.43,-2.19,United Kingdom,GB,13000,13000
Cumnock,55.4529,-4.2638,United Kingdom,GB,13000,8830
Gornalwood,52.523,-2.124,United Kingdom,GB,12992,12992
Yiewsley,51.513,-0.471,United Kingdom,GB,12979,12979
Shenley Church End,52.022,-0.788,United Kingdom,GB,12961,12961
Flint,53.2482,-3.1358,United Kingdom,GB,12953,12953
Woolton,53.374,-2.865,United Kingdom,GB,12921,12921
Leagrave,51.903,-0.466,United Kingdom,GB,12910,12910
Cliftonville,51.3881,1.4046,United Kingdom,GB,12900,12900
Buckingham,51.995,-0.986,United Kingdom,GB,12890,12890
Chilwell,52.916,-1.235,United Kingdom,GB,12864,12864
Syston,52.7,-1.08,United Kingdom,GB,12804,12804
Little Lever,53.563,-2.369,United Kingdom,GB,12803,12803
Sanderstead,51.3358,-0.0818,United Kingdom,GB,12777,12777
Chalfont Saint Peter,51.607,-0.556,United Kingdom,GB,12766,12766
Ainsdale,53.6021,-3.0405,United Kingdom,GB,12723,12723
Flitwick,52.0038,-0.4966,United Kingdom,GB,12700,12700
Brownhills,52.647,-1.933,United Kingdom,GB,12676,12676
Hornsey,51.587,-0.118,United Kingdom,GB,12659,12659
Sutton on Hull,53.7806,-0.3047,United Kingdom,GB,12649,12649
Horndean,50.9136,-0.9961,United Kingdom,GB,12639,12639
North Walsham,52.821,1.387,United Kingdom,GB,12634,12634
Galashiels,55.6194,-2.8033,United Kingdom,GB,12600,12600
Selston,53.07,-1.3,United Kingdom,GB,12596,12596
Forres,57.608,-3.62,United Kingdom,GB,12587,10100
Wordsley,52.483,-2.15,United Kingdom,GB,12582,12582
Tranent,55.945,-2.954,United Kingdom,GB,12582,12140
Sidmouth,50.68,-3.239,United Kingdom,GB,12569,12569
Croxley Green,51.647,-0.445,United Kingdom,GB,12562,12562
Mablethorpe,53.3409,0.261,United Kingdom,GB,12531,12531
Abergavenny,51.824,-3.0167,United Kingdom,GB,12515,12515
Wolverton,52.0626,-0.8102,United Kingdom,GB,12492,12492
Costessey,52.6602,1.2161,United Kingdom,GB,12463,12463
Barton upon Irwell,53.476,-2.36,United Kingdom,GB,12462,12462
Bickenhill,52.439,-1.725,United Kingdom,GB,12456,12456
Tilbury,51.4606,0.3582,United Kingdom,GB,12450,12450
Chigwell,51.6225,0.0723,United Kingdom,GB,12449,12449
Blunsdon Saint Andrew,51.61,-1.79,United Kingdom,GB,12414,12414
Hersham,51.3681,-0.4008,United Kingdom,GB,12414,12414
Spondon,52.92,-1.401,United Kingdom,GB,12377,12377
Ashby de la Zouch,52.746,-1.476,United Kingdom,GB,12370,12370
Coseley,52.55,-2.083,United Kingdom,GB,12357,12357
Ovenden,53.7432,-1.8779,United Kingdom,GB,12351,12351
Chepstow,51.642,-2.675,United Kingdom,GB,12350,12350
Lymm,53.3834,-2.475,United Kingdom,GB,12350,12350
Lye,52.459,-2.116,United Kingdom,GB,12346,12346
Thornbury,51.6094,-2.5249,United Kingdom,GB,12342,12342
Dalkeith,55.8958,-3.0583,United Kingdom,GB,12342,12342
Tonyrefail,51.584,-3.4306,United Kingdom,GB,12301,12301
New Mills,53.367,-2.007,United Kingdom,GB,12291,12291
Thatto Heath,53.4352,-2.7481,United Kingdom,GB,12280,12280
Harrow on the Hill,51.5655,-0.3327,United Kingdom,GB,12270,12270
Newhaven,50.8,0.06,United Kingdom,GB,12232,12232
Caldicot,51.591,-2.7492,United Kingdom,GB,12230,12230
Olton,52.4377,-1.8058,United Kingdom,GB,12167,12167
Cheadle,52.9849,-1.9865,United Kingdom,GB,12165,12165
Bamber Bridge,53.7281,-2.6606,United Kingdom,GB,12126,12126
Huntington,53.9926,-1.043,United Kingdom,GB,12108,12108
Sedgley,52.54,-2.123,United Kingdom,GB,12087,12087
Beaconsfield,51.6009,-0.6347,United Kingdom,GB,12081,12081
Bridgnorth,52.535,-2.4195,United Kingdom,GB,12079,12079
Fenton,52.9977,-2.1578,United Kingdom,GB,12070,12070
Berwick-Upon-Tweed,55.771,-2.007,United Kingdom,GB,12043,12043
Hwlffordd,51.8,-4.97,United Kingdom,GB,12042,12042
Wells,51.209,-2.647,United Kingdom,GB,12000,12000
Broxburn,55.934,-3.471,United Kingdom,GB,12000,12000
Warsop,53.2,-1.15,United Kingdom,GB,11999,11999
Minehead,51.2038,-3.4738,United Kingdom,GB,11981,11981
Montrose,56.708,-2.467,United Kingdom,GB,11955,11955
Broughton Astley,52.5278,-1.2275,United Kingdom,GB,11940,11940
Sheerness,51.441,0.76,United Kingdom,GB,11938,11938
Halstead,51.9451,0.6411,United Kingdom,GB,11906,11906
Bargoed,51.69,-3.24,United Kingdom,GB,11900,11900
Rushall,52.611,-1.957,United Kingdom,GB,11871,11871
Snaresbrook,51.587,0.0146,United Kingdom,GB,11868,11868
Sandown,50.6551,-1.1541,United Kingdom,GB,11868,11868
Hoyland Nether,53.4985,-1.4406,United Kingdom,GB,11852,11852
Ivybridge,50.389,-3.921,United Kingdom,GB,11851,11851
Torton,52.4522,-2.1606,United Kingdom,GB,11841,11841
Trentham,52.9663,-2.1899,United Kingdom,GB,11836,11836
Hexham,54.971,-2.101,United Kingdom,GB,11829,11139
Honiton,50.8,-3.19,United Kingdom,GB,11822,11822
Wath upon Dearne,53.5022,-1.3402,United Kingdom,GB,11816,11816
Street,51.1235,-2.7381,United Kingdom,GB,11805,11805
Oswaldtwistle,53.743,-2.393,United Kingdom,GB,11803,11803
Alsager,53.0961,-2.3048,United Kingdom,GB,11775,11775
Market Drayton,52.9044,-2.4848,United Kingdom,GB,11773,11773
Gillingham,51.0375,-2.2748,United Kingdom,GB,11756,11756
Hackney,51.5414,-0.0266,United Kingdom,GB,11734,11734
Tring,51.7962,-0.6592,United Kingdom,GB,11730,11730
Devizes,51.353,-1.994,United Kingdom,GB,11715,11715
Sowerby Bridge,53.71,-1.91,United Kingdom,GB,11703,11703
Risca,51.608,-3.091,United Kingdom,GB,11693,11693
Leominster,52.2282,-2.7385,United Kingdom,GB,11691,11691
Ulverston,54.193,-3.09,United Kingdom,GB,11678,11678
Elland,53.683,-1.84,United Kingdom,GB,11676,11676
Prudhoe,54.961,-1.849,United Kingdom,GB,11675,11675
Bolsover,53.2304,-1.2875,United Kingdom,GB,11673,11673
Bryn,53.499,-2.657,United Kingdom,GB,11662,11662
Sandy,52.131,-0.297,United Kingdom,GB,11657,11657
Henley on Thames,51.536,-0.898,United Kingdom,GB,11619,11619
Ascot,51.4084,-0.6707,United Kingdom,GB,11603,11603
Sunninghill,51.405,-0.656,United Kingdom,GB,11603,11603
Stonehaven,56.964,-2.211,United Kingdom,GB,11602,11602
Abertillery,51.73,-3.13,United Kingdom,GB,11601,11601
Wallingford,51.599,-1.125,United Kingdom,GB,11600,11600
Thame,51.75,-0.97,United Kingdom,GB,11561,11561
Belgrave,52.6566,-1.1262,United Kingdom,GB,11558,11558
Wanstead,51.5778,0.0286,United Kingdom,GB,11543,11543
Blundellsands,53.48,-3.05,United Kingdom,GB,11514,11514
Brislington,51.4316,-2.5439,United Kingdom,GB,11511,11511
Gourock,55.9538,-4.8173,United Kingdom,GB,11511,10350
Pelsall,52.631,-1.972,United Kingdom,GB,11505,11505
Tadley,51.3506,-1.1376,United Kingdom,GB,11473,11473
Culcheth,53.4517,-2.5218,United Kingdom,GB,11454,11454
Sandridge,51.7808,-0.3038,United Kingdom,GB,11451,11451
Holyhead,53.309,-4.633,United Kingdom,GB,11431,11431
Haydock,53.4678,-2.6609,United Kingdom,GB,11416,11416
Carnoustie,56.5005,-2.7147,United Kingdom,GB,11394,11394
Wealdstone,51.5957,-0.3352,United Kingdom,GB,11394,11394
Greetland,53.6869,-1.8714,United Kingdom,GB,11389,11389
Stainland,53.6728,-1.8805,United Kingdom,GB,11389,11389
Newport,52.7691,-2.3787,United Kingdom,GB,11387,11387
Royal Wootton Bassett,51.533,-1.9,United Kingdom,GB,11385,11385
Buckhurst Hill,51.632,0.036,United Kingdom,GB,11380,11380
Harrow Weald,51.604,-0.339,United Kingdom,GB,11376,11376
Newtown,52.5132,-3.3141,United Kingdom,GB,11357,11357
Knowsley,53.4498,-2.8501,United Kingdom,GB,11343,11343
Wantage,51.589,-1.427,United Kingdom,GB,11327,11327
Leatherhead,51.295,-0.329,United Kingdom,GB,11316,11316
Burslem,53.0426,-2.1879,United Kingdom,GB,11314,11314
Oxted,51.257,-0.006,United Kingdom,GB,11314,11314
Hipperholme,53.7258,-1.812,United Kingdom,GB,11308,11308
Chorleywood,51.65,-0.51,United Kingdom,GB,11286,11286
Stanwell,51.457,-0.4715,United Kingdom,GB,11279,11279
Astley,53.5008,-2.4454,United Kingdom,GB,11270,11270
Burtonwood,53.4302,-2.6614,United Kingdom,GB,11265,11265
Maryport,54.7128,-3.4926,United Kingdom,GB,11262,11262
Saltcoats,55.6352,-4.7896,United Kingdom,GB,11260,11260
Holywood,54.636,-5.845,United Kingdom,GB,11257,11257
Kingsnorth,51.1178,0.8615,United Kingdom,GB,11243,11243
Cranleigh,51.1363,-0.4784,United Kingdom,GB,11241,11241
Largs,55.794,-4.867,United Kingdom,GB,11241,11241
Crayford,51.4491,0.1812,United Kingdom,GB,11226,11226
Saint Ives,50.211,-5.48,United Kingdom,GB,11226,11226
Castle Bromwich,52.505,-1.7856,United Kingdom,GB,11217,11217
Dorking,51.234,-0.3318,United Kingdom,GB,11185,11185
Prescot,53.422,-2.814,United Kingdom,GB,11184,11184
Ilfracombe,51.208,-4.12,United Kingdom,GB,11184,11184
Wootton,52.2007,-0.8857,United Kingdom,GB,11180,11180
Helston,50.1,-5.27,United Kingdom,GB,11178,9780
Shoeburyness,51.5316,0.7978,United Kingdom,GB,11159,11159
Eckington,53.308,-1.3643,United Kingdom,GB,11152,11152
Aylestone,52.604,-1.154,United Kingdom,GB,11151,11151
Dorridge,52.372,-1.7554,United Kingdom,GB,11140,11140
Evington,52.621,-1.072,United Kingdom,GB,11133,11133
Southborough,51.1598,0.2652,United Kingdom,GB,11124,11124
Iver,51.521,-0.507,United Kingdom,GB,11119,11119
Barton upon Humber,53.6833,-0.45,United Kingdom,GB,11066,11066
Timperley,53.387,-2.328,United Kingdom,GB,11061,11061
Whitchurch,51.4064,-2.5594,United Kingdom,GB,11061,11061
Great Wyrley,52.6593,-2.0102,United Kingdom,GB,11060,11060
Epping,51.7004,0.1087,United Kingdom,GB,11047,11047
Bottesford,53.5521,-0.6714,United Kingdom,GB,11038,11038
Tavistock,50.545,-4.15,United Kingdom,GB,11018,11018
Churchdown,51.88,-2.17,United Kingdom,GB,10990,10990
Cudworth,53.5784,-1.4149,United Kingdom,GB,10977,10977
Hellesdon,52.6485,1.2509,United Kingdom,GB,10957,10957
Highgate,51.5716,-0.1448,United Kingdom,GB,10955,10955
Ardrossan,55.6432,-4.8097,United Kingdom,GB,10952,10670
Oakham,52.6705,-0.7333,United Kingdom,GB,10922,10922
Ponteland,55.048,-1.747,United Kingdom,GB,10921,10921
Mossley,53.5147,-2.0387,United Kingdom,GB,10921,10921
Hollinwood,53.5183,-2.144,United Kingdom,GB,10920,10920
Inverurie,57.28,-2.38,United Kingdom,GB,10885,10885
Soham,52.3338,0.3361,United Kingdom,GB,10860,10860
Rainhill,53.4157,-2.7625,United Kingdom,GB,10853,10853
Stranraer,54.902,-5.027,United Kingdom,GB,10851,10320
Earlestown,53.45,-2.65,United Kingdom,GB,10830,10830
Great Harwood,53.786,-2.408,United Kingdom,GB,10800,10800
Methil,56.1844,-3.0223,United Kingdom,GB,10800,10800
Wooburn,51.581,-0.691,United Kingdom,GB,10792,10792
Flixton,53.447,-2.391,United Kingdom,GB,10786,10786
Parkstone,50.71,-1.95,United Kingdom,GB,10779,10779
Barnoldswick,53.9147,-2.1895,United Kingdom,GB,10752,10752
Stannington,53.396,-1.536,United Kingdom,GB,10747,10747
Selsey,50.735,-0.7898,United Kingdom,GB,10737,10737
Royston,53.61,-1.45,United Kingdom,GB,10728,10728
Amesbury,51.17,-1.77,United Kingdom,GB,10724,10724
Ross on Wye,51.914,-2.587,United Kingdom,GB,10700,10700
Desborough,52.4398,-0.8172,United Kingdom,GB,10697,10697
Hatch End,51.601,-0.3743,United Kingdom,GB,10693,10693
Darfield,53.538,-1.3812,United Kingdom,GB,10685,10685
Knowle,52.3881,-1.7318,United Kingdom,GB,10678,10678
Aylesford,51.3033,0.4796,United Kingdom,GB,10660,10660
Cookstown,54.647,-6.745,United Kingdom,GB,10646,10646
North Tidworth,51.237,-1.664,United Kingdom,GB,10621,10621
Longbenton,55,-1.57,United Kingdom,GB,10617,10617
Bishops Cleeve,51.947,-2.061,United Kingdom,GB,10612,10612
Blandford Forum,50.856,-2.1648,United Kingdom,GB,10610,10610
Englefield Green,51.4301,-0.5699,United Kingdom,GB,10607,10607
Felton,51.51,-2.574,United Kingdom,GB,10607,10607
Kingsteignton,50.5458,-3.5962,United Kingdom,GB,10600,10600
Abergele,53.28,-3.58,United Kingdom,GB,10577,10577
Southwick,54.9193,-1.4062,United Kingdom,GB,10535,10535
Whitburn,55.8621,-3.6872,United Kingdom,GB,10527,10527
Monmouth,51.81,-2.72,United Kingdom,GB,10508,10508
Ryhope,54.8679,-1.3698,United Kingdom,GB,10484,10484
Fort William,56.8198,-5.1052,United Kingdom,GB,10459,10175
Holbeach,52.8037,0.0154,United Kingdom,GB,10458,10458
Chatteris,52.456,0.055,United Kingdom,GB,10453,10453
Eccleston,53.4539,-2.7748,United Kingdom,GB,10433,10433
Scartho,53.5399,-0.0926,United Kingdom,GB,10408,10408
Cowes,50.7595,-1.3002,United Kingdom,GB,10405,10405
Charlton Kings,51.8877,-2.0413,United Kingdom,GB,10396,10396
Ickenham,51.558,-0.4484,United Kingdom,GB,10387,10387
Shepton Mallet,51.193,-2.546,United Kingdom,GB,10369,10369
Prestonpans,55.9597,-2.961,United Kingdom,GB,10360,10360
Mildenhall,52.3446,0.5089,United Kingdom,GB,10315,10315
Broadstone,50.7605,-1.995,United Kingdom,GB,10303,10303
Spitalfields,51.5166,-0.075,United Kingdom,GB,10286,10286
Cheam,51.36,-0.21,United Kingdom,GB,10285,10285
Ludlow,52.368,-2.718,United Kingdom,GB,10266,10266
Appleton,53.3508,-2.5441,United Kingdom,GB,10265,10265
Lemington,54.972,-1.723,United Kingdom,GB,10228,10228
Snodland,51.328,0.4467,United Kingdom,GB,10211,10211
Castleton,53.5907,-2.1737,United Kingdom,GB,10159,10159
Rogerstone,51.5906,-3.0537,United Kingdom,GB,10158,10158
Hucclecote,51.85,-2.18,United Kingdom,GB,10158,10158
Great Missenden,51.7042,-0.7078,United Kingdom,GB,10138,10138
Corfe Mullen,50.7701,-2.0175,United Kingdom,GB,10133,10133
Beccles,52.458,1.563,United Kingdom,GB,10123,10123
Padiham,53.797,-2.311,United Kingdom,GB,10098,10098
Worsley,53.5093,-2.3845,United Kingdom,GB,10090,10090
Warfield,51.442,-0.737,United Kingdom,GB,10088,10088
Mold,53.166,-3.133,United Kingdom,GB,10058,10058
Chapeltown,53.462,-1.466,United Kingdom,GB,10043,10043
Southwater,51.0238,-0.3526,United Kingdom,GB,10025,10025
Horbury,53.6595,-1.5566,United Kingdom,GB,10002,10002
Shevington,53.572,-2.69,United Kingdom,GB,10000,9517
Downham Market,52.6,0.39,United Kingdom,GB,9994,9994
Euxton,53.662,-2.674,United Kingdom,GB,9993,9993
Marton,54.5406,-1.2124,United Kingdom,GB,9990,9990
Shildon,54.63,-1.65,United Kingdom,GB,9976,9976
Bishopstoke,50.9679,-1.3278,United Kingdom,GB,9974,9974
Aberaman,51.7,-3.4333,United Kingdom,GB,9964,9964
Birchington,51.377,1.305,United Kingdom,GB,9961,9961
Handsworth,53.37,-1.4,United Kingdom,GB,9957,9957
Haddington,55.958,-2.774,United Kingdom,GB,9944,9130
Aldenham,51.6723,-0.3546,United Kingdom,GB,9942,9942
Baldock,51.99,-0.19,United Kingdom,GB,9900,9900
Worth,51.113,-0.147,United Kingdom,GB,9888,9888
Stocksbridge,53.478,-1.588,United Kingdom,GB,9869,9869
Kilsyth,55.98,-4.06,United Kingdom,GB,9860,9860
Ellon,57.366,-2.086,United Kingdom,GB,9860,9860
Abram,53.508,-2.588,United Kingdom,GB,9855,9855
Caernarfon,53.14,-4.27,United Kingdom,GB,9852,9615
Ollerton,53.2,-1.02,United Kingdom,GB,9840,9840
Choppington,55.145,-1.601,United Kingdom,GB,9787,9787
Kippax,53.7669,-1.3705,United Kingdom,GB,9785,9785
Tottington,53.613,-2.339,United Kingdom,GB,9783,9783
Whitchurch,52.969,-2.682,United Kingdom,GB,9781,9781
Dodworth,53.5417,-1.5214,United Kingdom,GB,9777,9777
Nairn,57.586,-3.869,United Kingdom,GB,9773,9773
Balderton,53.0549,-0.7727,United Kingdom,GB,9757,9757
Shepperton,51.39,-0.46,United Kingdom,GB,9753,9753
Pembroke Dock,51.6933,-4.9458,United Kingdom,GB,9753,9753
Felpham,50.7905,-0.6539,United Kingdom,GB,9746,9746
Cobham,51.329,-0.409,United Kingdom,GB,9739,9739
Raynes Park,51.4033,-0.2321,United Kingdom,GB,9738,9738
Rhosllanerchrugog,53.011,-3.052,United Kingdom,GB,9694,9694
Lambeth,51.4903,-0.1193,United Kingdom,GB,9675,9675
Bradwell,52.05,-0.787,United Kingdom,GB,9657,9657
Glenfield,52.6491,-1.2062,United Kingdom,GB,9643,9643
Immingham,53.6139,-0.2183,United Kingdom,GB,9642,9642
Hockley,51.6014,0.6363,United Kingdom,GB,9616,9616
Swanage,50.608,-1.96,United Kingdom,GB,9601,9601
Boxley,51.3024,0.5429,United Kingdom,GB,9554,9554
Matlock,53.14,-1.55,United Kingdom,GB,9543,9543
Newburn,54.983,-1.743,United Kingdom,GB,9536,9536
Skelton,54.5619,-0.9874,United Kingdom,GB,9526,9526
Sherborne,50.9469,-2.5171,United Kingdom,GB,9523,9350
Tadworth,51.294,-0.242,United Kingdom,GB,9522,9522
Worsborough,53.52,-1.47,United Kingdom,GB,9516,9516
London Colney,51.726,-0.3,United Kingdom,GB,9507,9507
Emsworth,50.849,-0.938,United Kingdom,GB,9492,9492
Llantwit Major,51.4062,-3.475,United Kingdom,GB,9486,9486
Bewdley,52.3752,-2.3162,United Kingdom,GB,9470,9470
Killamarsh,53.3205,-1.3116,United Kingdom,GB,9445,9445
South Normanton,53.107,-1.343,United Kingdom,GB,9445,9445
Bradford-on-Avon,51.347,-2.251,United Kingdom,GB,9402,9402
Horsell,51.3286,-0.5617,United Kingdom,GB,9384,9384
Broadwater,50.8282,-0.3742,United Kingdom,GB,9373,9373
Wilnecote,52.6081,-1.6677,United Kingdom,GB,9358,9358
Kirkwall,58.981,-2.96,United Kingdom,GB,9293,7420
Ledbury,52.0339,-2.4235,United Kingdom,GB,9290,9290
Crigglestone,53.644,-1.5226,United Kingdom,GB,9271,9271
Towcester,52.13,-0.99,United Kingdom,GB,9252,9252
Bowdon,53.376,-2.366,United Kingdom,GB,9228,9228
Bude,50.824,-4.542,United Kingdom,GB,9222,9222
Clay Cross,53.1637,-1.4128,United Kingdom,GB,9222,9222
Launceston,50.635,-4.354,United Kingdom,GB,9216,9216
Cullercoats,55.033,-1.433,United Kingdom,GB,9202,9202
Cupar,56.32,-3.01,United Kingdom,GB,9200,9020
Aberbargoed,51.6968,-3.224,United Kingdom,GB,9184,9184
Tiptree,51.81,0.75,United Kingdom,GB,9182,9182
Burscough,53.596,-2.843,United Kingdom,GB,9182,9182
Yaxley,52.52,-0.26,United Kingdom,GB,9174,9174
Pencoed,51.5228,-3.5047,United Kingdom,GB,9166,9166
Brandon,52.4474,0.6242,United Kingdom,GB,9145,9145
Larbert,56.0229,-3.826,United Kingdom,GB,9143,9143
Bingham,52.952,-0.953,United Kingdom,GB,9131,9131
Stevenston,55.645,-4.758,United Kingdom,GB,9129,9129
Whitnash,52.268,-1.524,United Kingdom,GB,9129,9129
Usworth,54.94,-1.55,United Kingdom,GB,9100,9100
Portlethen,57.061,-2.13,United Kingdom,GB,9090,9090
Dinnington,53.3667,-1.2,United Kingdom,GB,9077,9077
Frodsham,53.295,-2.725,United Kingdom,GB,9077,9077
Shanklin,50.631,-1.1734,United Kingdom,GB,9072,9072
Armadale,55.8978,-3.7047,United Kingdom,GB,9063,9063
Bonhill,55.983,-4.567,United Kingdom,GB,9050,9050
Eaton Socon,52.22,-0.29,United Kingdom,GB,9042,9042
Rye,50.95,0.73,United Kingdom,GB,9041,9041
Queensferry,55.99,-3.398,United Kingdom,GB,9026,9026
Barwell,52.5682,-1.3462,United Kingdom,GB,9022,9022
Blairgowrie,56.5916,-3.3405,United Kingdom,GB,9020,9020
Bovingdon,51.7231,-0.5367,United Kingdom,GB,9000,9000
Dunblane,56.1838,-3.9674,United Kingdom,GB,9000,9000
Ferryhill,54.69,-1.55,United Kingdom,GB,8942,8942
Hayle,50.183,-5.416,United Kingdom,GB,8939,8939
Glastonbury,51.1485,-2.714,United Kingdom,GB,8932,8932
Felling,54.95,-1.564,United Kingdom,GB,8908,8908
Great Cornard,52.0245,0.7497,United Kingdom,GB,8908,8908
Caister-on-Sea,52.651,1.733,United Kingdom,GB,8901,8901
Irthlingborough,52.324,-0.614,United Kingdom,GB,8900,8900
Sandiacre,52.923,-1.291,United Kingdom,GB,8889,8889
Holywell,53.274,-3.223,United Kingdom,GB,8886,8886
Partick,55.8699,-4.3125,United Kingdom,GB,8884,8884
Ifield,51.1234,-0.2073,United Kingdom,GB,8882,8882
Leven,56.195,-2.9942,United Kingdom,GB,8850,8850
Rhymney,51.759,-3.283,United Kingdom,GB,8845,8845
Kirk of Shotts,55.823,-3.804,United Kingdom,GB,8840,8570
Great Dunmow,51.873,0.3617,United Kingdom,GB,8830,8830
Brimington,53.258,-1.3905,United Kingdom,GB,8788,8788
Cherry Hinton,52.1849,0.176,United Kingdom,GB,8780,8780
Cowley,51.528,-0.481,United Kingdom,GB,8776,8776
Lydney,51.7286,-2.5285,United Kingdom,GB,8766,8766
Cockermouth,54.6613,-3.362,United Kingdom,GB,8761,8761
Littleport,52.4568,0.3046,United Kingdom,GB,8738,8738
Atherstone,52.5787,-1.5462,United Kingdom,GB,8670,8670
Raunds,52.345,-0.537,United Kingdom,GB,8641,8641
Chapel en le Frith,53.322,-1.917,United Kingdom,GB,8635,8635
Canford Cliffs,50.7,-1.93,United Kingdom,GB,8620,8620
Whitwick,52.7403,-1.3556,United Kingdom,GB,8612,8612
Polegate,50.8216,0.2442,United Kingdom,GB,8586,8586
Oban,56.412,-5.472,United Kingdom,GB,8575,8575
Sompting,50.8303,-0.3395,United Kingdom,GB,8561,8561
Meltham,53.592,-1.85,United Kingdom,GB,8534,8534
Worplesdon,51.272,-0.612,United Kingdom,GB,8529,8529
Penkridge,52.7252,-2.1164,United Kingdom,GB,8526,8526
Clayton le Moors,53.775,-2.384,United Kingdom,GB,8522,8522
Oakengates,52.695,-2.451,United Kingdom,GB,8517,8517
Bedwas,51.5926,-3.2061,United Kingdom,GB,8512,8512
West Auckland,54.6318,-1.721,United Kingdom,GB,8509,8509
Hughenden,51.6558,-0.749,United Kingdom,GB,8506,8506
Carlton Colville,52.454,1.691,United Kingdom,GB,8505,8505
Skewen,51.6609,-3.8399,United Kingdom,GB,8500,8500
Cullompton,50.855,-3.393,United Kingdom,GB,8499,8499
Blackwood,51.67,-3.19,United Kingdom,GB,8496,8496
Bersted,50.797,-0.689,United Kingdom,GB,8496,8496
Cinderford,51.8225,-2.4989,United Kingdom,GB,8494,8494
Liphook,51.076,-0.803,United Kingdom,GB,8491,8491
Dunbar,56.0027,-2.5169,United Kingdom,GB,8486,8486
Ramsey,52.45,-0.12,United Kingdom,GB,8479,8479
Rochford,51.5821,0.7065,United Kingdom,GB,8471,8471
Sawbridgeworth,51.814,0.15,United Kingdom,GB,8458,8458
Great Billing,52.2577,-0.8222,United Kingdom,GB,8457,8457
Narborough,52.5727,-1.2023,United Kingdom,GB,8448,8448
Audley,53.053,-2.304,United Kingdom,GB,8437,8437
Hornsea,53.9108,-0.1676,United Kingdom,GB,8432,8432
Haxby,54.016,-1.075,United Kingdom,GB,8428,8428
Welwyn,51.831,-0.215,United Kingdom,GB,8425,8425
Polesworth,52.6152,-1.6174,United Kingdom,GB,8423,8423
Richmond,54.403,-1.737,United Kingdom,GB,8413,8413
Seaton,50.705,-3.078,United Kingdom,GB,8413,8413
Woodchurch,53.375,-3.084,United Kingdom,GB,8400,8400
Marlborough,51.42,-1.73,United Kingdom,GB,8395,8395
Annan,54.983,-3.266,United Kingdom,GB,8389,8389
Yarm,54.505,-1.348,United Kingdom,GB,8384,8384
Aveley,51.5018,0.2534,United Kingdom,GB,8381,8381
Peebles,55.65,-3.18,United Kingdom,GB,8376,8376
Birtley,54.9,-1.577,United Kingdom,GB,8367,8367
Torpoint,50.376,-4.205,United Kingdom,GB,8364,7717
Coleford,51.791,-2.6162,United Kingdom,GB,8359,8359
Windermere,54.376,-2.907,United Kingdom,GB,8359,8359
Glascote,52.6245,-1.668,United Kingdom,GB,8344,8344
Aughton,53.542,-2.912,United Kingdom,GB,8342,8342
Pocklington,53.9309,-0.7781,United Kingdom,GB,8337,8337
Harlington,53.481,-1.182,United Kingdom,GB,8276,8276
Buckie,57.676,-2.965,United Kingdom,GB,8273,8273
Tanfield,54.897,-1.703,United Kingdom,GB,8270,8270
Silsden,53.914,-1.937,United Kingdom,GB,8268,8268
Paddock Wood,51.1756,0.3955,United Kingdom,GB,8263,8263
Hadleigh,52.044,0.961,United Kingdom,GB,8253,8253
Lanark,55.6749,-3.777,United Kingdom,GB,8253,8253
Brecon,51.948,-3.391,United Kingdom,GB,8250,8250
Toton,52.907,-1.254,United Kingdom,GB,8238,8238
Billingshurst,51.0226,-0.4508,United Kingdom,GB,8232,8232
Mountsorrel,52.7167,-1.15,United Kingdom,GB,8223,8223
Radcliffe on Trent,52.947,-1.04,United Kingdom,GB,8205,8205
Bramley,53.4253,-1.2648,United Kingdom,GB,8194,8194
Egremont,54.484,-3.5306,United Kingdom,GB,8194,8194
Brierfield,53.824,-2.235,United Kingdom,GB,8193,8193
Gowerton,51.648,-4.043,United Kingdom,GB,8183,8183
Walmer,51.2043,1.3985,United Kingdom,GB,8178,8178
Heybridge,51.7417,0.6897,United Kingdom,GB,8175,8175
Goffs Oak,51.7109,-0.0825,United Kingdom,GB,8172,8172
Cam,51.7,-2.3667,United Kingdom,GB,8152,8152
Highworth,51.631,-1.712,United Kingdom,GB,8151,8151
Shinfield,51.408,-0.947,United Kingdom,GB,8136,8136
Bucksburn,57.177,-2.175,United Kingdom,GB,8131,8131
Witley,51.15,-0.646,United Kingdom,GB,8130,8130
Dalton in Furness,54.1544,-3.1814,United Kingdom,GB,8125,8125
Merstham,51.264,-0.153,United Kingdom,GB,8123,8123
Wistaston,53.0821,-2.4747,United Kingdom,GB,8117,8117
Alnwick,55.4134,-1.7069,United Kingdom,GB,8116,8116
Old Colwyn,53.291,-3.704,United Kingdom,GB,8113,8113
Monifieth,56.481,-2.82,United Kingdom,GB,8110,8110
Ystradgynlais,51.781,-3.7511,United Kingdom,GB,8092,8092
Horden,54.764,-1.315,United Kingdom,GB,8087,8087
Brightlingsea,51.81,1.03,United Kingdom,GB,8076,8076
Totnes,50.432,-3.684,United Kingdom,GB,8076,8076
Caerleon,51.615,-2.959,United Kingdom,GB,8061,8061
Stornoway,58.209,-6.387,United Kingdom,GB,8038,8038
Warlingham,51.3095,-0.0574,United Kingdom,GB,8036,8036
Merrow,51.2463,-0.5279,United Kingdom,GB,8036,8036
Trumpington,52.174,0.109,United Kingdom,GB,8034,8034
Wroughton,51.525,-1.792,United Kingdom,GB,8033,8033
Radlett,51.685,-0.318,United Kingdom,GB,8024,8024
Bearsted,51.2738,0.5789,United Kingdom,GB,8010,8010
Exhall,52.47,-1.48,United Kingdom,GB,8006,8006
Hawkinge,51.117,1.1638,United Kingdom,GB,8002,8002
Goring by Sea,50.8122,-0.4244,United Kingdom,GB,7990,7990
Loftus,54.5569,-0.8919,United Kingdom,GB,7988,7988
Princes Risborough,51.724,-0.8344,United Kingdom,GB,7978,7978
Seasalter,51.3456,0.9981,United Kingdom,GB,7967,7967
Newbold,53.2519,-1.4461,United Kingdom,GB,7962,7962
Coppull,53.62,-2.661,United Kingdom,GB,7959,7959
Harworth,53.417,-1.075,United Kingdom,GB,7948,7948
Willerby,53.7633,-0.4504,United Kingdom,GB,7940,7940
Denny,56.018,-3.907,United Kingdom,GB,7934,7934
Thurso,58.596,-3.521,United Kingdom,GB,7933,7933
Newport-On-Tay,56.4402,-2.941,United Kingdom,GB,7922,4310
Wadebridge,50.517,-4.835,United Kingdom,GB,7900,7900
Bollington,53.298,-2.093,United Kingdom,GB,7885,7095
Binfield,51.432,-0.792,United Kingdom,GB,7880,7880
Kinmel,53.31,-3.519,United Kingdom,GB,7864,7864
Latchford,53.3796,-2.5645,United Kingdom,GB,7856,7856
Sileby,52.731,-1.106,United Kingdom,GB,7835,7835
Crediton,50.791,-3.656,United Kingdom,GB,7835,7835
Millom,54.2096,-3.2702,United Kingdom,GB,7829,7829
Rainworth,53.1197,-1.1235,United Kingdom,GB,7821,7821
Edenbridge,51.197,0.065,United Kingdom,GB,7808,7808
Willesborough,51.1386,0.8957,United Kingdom,GB,7800,7800
West Thurrock,51.4836,0.282,United Kingdom,GB,7795,7795
Rainford,53.503,-2.783,United Kingdom,GB,7779,7779
Annfield Plain,54.857,-1.737,United Kingdom,GB,7774,7774
Cross Gates,53.8063,-1.4506,United Kingdom,GB,7770,7770
Hook,51.2773,-0.9633,United Kingdom,GB,7770,7770
Stopsley,51.899,-0.396,United Kingdom,GB,7760,7760
Woodbridge,52.094,1.318,United Kingdom,GB,7749,7749
Stony Stratford,52.0567,-0.8526,United Kingdom,GB,7736,7736
Tenterden,51.0696,0.6898,United Kingdom,GB,7735,7735
Stonehouse,51.7478,-2.2838,United Kingdom,GB,7725,7725
Byfleet,51.34,-0.47,United Kingdom,GB,7724,7724
Longridge,53.831,-2.597,United Kingdom,GB,7724,7724
Rothwell,52.4254,-0.8029,United Kingdom,GB,7694,7694
Cromer,52.931,1.302,United Kingdom,GB,7683,7683
Treorchy,51.6594,-3.5055,United Kingdom,GB,7681,7681
Hassocks,50.9233,-0.1509,United Kingdom,GB,7667,7667
Kingsbury,52.5614,-1.6917,United Kingdom,GB,7652,7652
Wivenhoe,51.8667,0.9625,United Kingdom,GB,7637,7637
Fakenham,52.8356,0.851,United Kingdom,GB,7617,7617
Angmering,50.8288,-0.4846,United Kingdom,GB,7614,7614
Rhôs-on-Sea,53.309,-3.738,United Kingdom,GB,7593,7593
Sundon,51.92,-0.47,United Kingdom,GB,7585,7585
Codsall,52.6267,-2.1924,United Kingdom,GB,7582,7582
Diss,52.3812,1.1079,United Kingdom,GB,7572,7572
Saint Agnes,50.312,-5.204,United Kingdom,GB,7565,7565
Banchory,57.055,-2.49,United Kingdom,GB,7560,7560
Pembroke,51.676,-4.9158,United Kingdom,GB,7552,7552
Yatton,51.3855,-2.8256,United Kingdom,GB,7552,7552
Clydach,51.69,-3.91,United Kingdom,GB,7503,7503
Cramond,55.9797,-3.3007,United Kingdom,GB,7502,7502
Hucknall under Huthwaite,53.125,-1.301,United Kingdom,GB,7500,7500
Whitworth,53.663,-2.177,United Kingdom,GB,7500,7500
Stonehouse,55.6968,-3.9824,United Kingdom,GB,7500,5500
Currie,55.896,-3.3074,United Kingdom,GB,7494,7494
Dinas Powys,51.4331,-3.2134,United Kingdom,GB,7490,7490
Northam,51.0393,-4.2104,United Kingdom,GB,7489,7489
Strathaven,55.677,-4.065,United Kingdom,GB,7484,7350
Norton Canes,52.6833,-1.9666,United Kingdom,GB,7479,7479
Littleborough,53.644,-2.098,United Kingdom,GB,7467,7467
Boultham,53.214,-0.5561,United Kingdom,GB,7465,7465
Chobham,51.348,-0.604,United Kingdom,GB,7456,7456
Burton Latimer,52.365,-0.678,United Kingdom,GB,7449,7449
Clowne,53.276,-1.263,United Kingdom,GB,7447,7447
Ripponden,53.672,-1.946,United Kingdom,GB,7421,7421
Waltham Cross,51.686,-0.0331,United Kingdom,GB,7407,7407
Pyle,51.5291,-3.6953,United Kingdom,GB,7405,7405
Wendover,51.768,-0.7463,United Kingdom,GB,7399,7399
Harefield,51.6034,-0.478,United Kingdom,GB,7399,7399
Wickersley,53.4199,-1.2792,United Kingdom,GB,7392,7392
Brockworth,51.85,-2.15,United Kingdom,GB,7387,7387
Durrington,51.199,-1.775,United Kingdom,GB,7379,7379
Upholland,53.541,-2.728,United Kingdom,GB,7376,7376
Mountain Ash,51.6814,-3.3792,United Kingdom,GB,7374,7374
Crieff,56.3757,-3.8426,United Kingdom,GB,7368,7368
Sheringham,52.94,1.213,United Kingdom,GB,7367,7367
Shenstone,52.637,-1.841,United Kingdom,GB,7359,7359
Braunton,51.11,-4.162,United Kingdom,GB,7353,7353
Bannockburn,56.09,-3.91,United Kingdom,GB,7352,6840
Greenhill,51.36,1.103,United Kingdom,GB,7339,7339
Wick,58.454,-3.089,United Kingdom,GB,7333,7040
Brewood,52.6769,-2.1738,United Kingdom,GB,7329,7329
Partington,53.42,-2.43,United Kingdom,GB,7327,7327
Herne,51.3492,1.1331,United Kingdom,GB,7325,7325
Shaftesbury,51.0059,-2.1969,United Kingdom,GB,7314,7314
Southwell,53.078,-0.955,United Kingdom,GB,7297,7297
Titchfield,50.8491,-1.2344,United Kingdom,GB,7280,7280
Bramcote,52.934,-1.242,United Kingdom,GB,7270,7270
Swaffham,52.6529,0.6843,United Kingdom,GB,7258,7258
Roby,53.413,-2.852,United Kingdom,GB,7254,7254
Basing,51.2704,-1.0473,United Kingdom,GB,7232,7232
Kinvere,52.4488,-2.228,United Kingdom,GB,7225,7225
Peterculter,57.097,-2.2657,United Kingdom,GB,7220,7220
Ruddington,52.893,-1.15,United Kingdom,GB,7216,7216
Cotgrave,52.914,-1.042,United Kingdom,GB,7203,7203
Watton,52.5713,0.8259,United Kingdom,GB,7202,6819
Brechin,56.7299,-2.6553,United Kingdom,GB,7199,7199
Whitchurch,51.23,-1.34,United Kingdom,GB,7198,7198
Kirkham,53.782,-2.87,United Kingdom,GB,7194,7194
Warsash,50.8532,-1.301,United Kingdom,GB,7183,7183
West Mersea,51.7784,0.9168,United Kingdom,GB,7183,7183
Wilmington,51.4309,0.1876,United Kingdom,GB,7178,7178
Grove,51.612,-1.421,United Kingdom,GB,7178,7178
Claygate,51.36,-0.342,United Kingdom,GB,7168,7168
Sawston,52.1247,0.1731,United Kingdom,GB,7145,7145
Higham Ferrers,52.3057,-0.5844,United Kingdom,GB,7145,7145
Denham,51.563,-0.499,United Kingdom,GB,7139,7139
Coundon,54.6637,-1.6341,United Kingdom,GB,7139,7139
Pershore,52.114,-2.08,United Kingdom,GB,7125,7125
Faringdon,51.657,-1.586,United Kingdom,GB,7121,7121
Ashbourne,53.016,-1.731,United Kingdom,GB,7112,7112
Allington,51.2903,0.5019,United Kingdom,GB,7100,7100
Hedon,53.7395,-0.1948,United Kingdom,GB,7100,7100
Wardle,53.647,-2.132,United Kingdom,GB,7092,7092
Calverton,53.037,-1.083,United Kingdom,GB,7076,7076
Abersychan,51.7239,-3.0587,United Kingdom,GB,7064,7064
High Ackworth,53.6408,-1.3364,United Kingdom,GB,7049,7049
Quarrington,52.987,-0.4304,United Kingdom,GB,7046,7046
Kirkleatham,54.5833,-1.0833,United Kingdom,GB,7045,7045
Saint Peters,51.3651,1.4191,United Kingdom,GB,7042,7042
Burley in Wharfedale,53.9137,-1.748,United Kingdom,GB,7041,7041
Coxhoe,54.714,-1.503,United Kingdom,GB,7020,7020
East Cowes,50.757,-1.2865,United Kingdom,GB,7010,7010
Shifnal,52.665,-2.373,United Kingdom,GB,7009,7009
Eston,54.56,-1.144,United Kingdom,GB,7005,7005
Crewkerne,50.8803,-2.7939,United Kingdom,GB,7000,7000
Westgate on Sea,51.3814,1.3381,United Kingdom,GB,6996,6996
New Romney,50.985,0.941,United Kingdom,GB,6996,6996
Warrenpoint,54.0991,-6.249,United Kingdom,GB,6981,6981
Filey,54.2101,-0.2893,United Kingdom,GB,6981,6981
Lerwick,60.155,-1.145,United Kingdom,GB,6958,6958
Cleator Moor,54.5211,-3.5119,United Kingdom,GB,6936,6936
Dowlais,51.7585,-3.3416,United Kingdom,GB,6926,6926
Deeping Saint James,52.6717,-0.2995,United Kingdom,GB,6923,6923
Kingswood,51.2931,-0.2086,United Kingdom,GB,6891,6891
Church Gresley,52.76,-1.566,United Kingdom,GB,6881,6881
Carlton,52.967,-1.088,United Kingdom,GB,6881,6881
Thornhill,53.6622,-1.6124,United Kingdom,GB,6875,6875
Bonnybridge,55.999,-3.887,United Kingdom,GB,6870,5210
Duntocher,55.924,-4.417,United Kingdom,GB,6850,6850
Fishtoft,52.9617,0.0259,United Kingdom,GB,6835,6835
Lochgelly,56.1282,-3.3111,United Kingdom,GB,6834,6834
Pontardawe,51.722,-3.851,United Kingdom,GB,6832,6832
Pickering,54.2439,-0.776,United Kingdom,GB,6830,6830
Sturry,51.3036,1.1211,United Kingdom,GB,6820,6820
Gedling,52.975,-1.081,United Kingdom,GB,6817,6817
Horncastle,53.208,-0.114,United Kingdom,GB,6815,6815
Penryn,50.169,-5.107,United Kingdom,GB,6812,6812
Lossiemouth,57.7189,-3.2875,United Kingdom,GB,6803,6803
Great Chart,51.1409,0.8372,United Kingdom,GB,6801,6801
Saint Blazey,50.361,-4.716,United Kingdom,GB,6799,6799
Park Street,51.722,-0.339,United Kingdom,GB,6781,6781
Bridge of Allan,56.155,-3.942,United Kingdom,GB,6762,5380
Torrisholme,54.066,-2.83,United Kingdom,GB,6755,6755
Branston,52.787,-1.659,United Kingdom,GB,6749,6749
Bolton upon Dearne,53.5197,-1.3148,United Kingdom,GB,6744,6744
Esher,51.3691,-0.365,United Kingdom,GB,6743,6743
Stepps,55.8908,-4.1522,United Kingdom,GB,6730,6730
North Petherton,51.091,-3.013,United Kingdom,GB,6730,6730
Sandycroft,53.195,-2.999,United Kingdom,GB,6724,6724
Bishops Waltham,50.9536,-1.2118,United Kingdom,GB,6723,6723
Llandudno Junction,53.284,-3.809,United Kingdom,GB,6722,6722
Meopham,51.364,0.36,United Kingdom,GB,6722,6722
Cranbrook,51.0967,0.5356,United Kingdom,GB,6717,6717
Godmanchester,52.3176,-0.1725,United Kingdom,GB,6711,6711
Crowthorne,51.37,-0.792,United Kingdom,GB,6711,6711
Uddingston,55.8183,-4.0827,United Kingdom,GB,6710,6370
Dursley,51.6811,-2.3543,United Kingdom,GB,6697,6697
Aintree,53.4793,-2.9373,United Kingdom,GB,6689,6689
Farington,53.703,-2.685,United Kingdom,GB,6674,6674
Battle,50.92,0.48,United Kingdom,GB,6673,6673
Kimberley,52.997,-1.255,United Kingdom,GB,6659,6659
Sherburn in Elmet,53.7973,-1.2331,United Kingdom,GB,6657,6657
Sawley,52.882,-1.299,United Kingdom,GB,6629,6629
Rishton,53.7701,-2.4187,United Kingdom,GB,6625,6625
Twyford,51.477,-0.867,United Kingdom,GB,6618,6618
North Berwick,56.058,-2.717,United Kingdom,GB,6605,6605
Stewarton,55.68,-4.515,United Kingdom,GB,6584,6584
Budleigh Salterton,50.6284,-3.3205,United Kingdom,GB,6575,6575
Southam,52.252,-1.39,United Kingdom,GB,6567,6567
Lydd,50.9509,0.9064,United Kingdom,GB,6567,6567
Downside,51.3117,-0.4095,United Kingdom,GB,6564,6564
Alvechurch,52.3506,-1.9647,United Kingdom,GB,6564,6564
Pakefield,52.451,1.728,United Kingdom,GB,6563,6563
Chapelhall,55.845,-3.9472,United Kingdom,GB,6560,6560
Muxton,52.72,-2.421,United Kingdom,GB,6557,6557
Whetstone,52.5724,-1.1799,United Kingdom,GB,6556,6556
Billinge,53.4932,-2.7129,United Kingdom,GB,6554,6554
Cove,51.2965,-0.7939,United Kingdom,GB,6548,6548
Dingwall,57.597,-4.428,United Kingdom,GB,6545,5470
Cwmafan,51.6155,-3.7717,United Kingdom,GB,6538,6538
Sawtry,52.44,-0.28,United Kingdom,GB,6536,6536
Wingerworth,53.2033,-1.4347,United Kingdom,GB,6533,6533
Kelty,56.133,-3.38,United Kingdom,GB,6529,6529
Anstey,52.6715,-1.1955,United Kingdom,GB,6528,6528
Frampton Cotterell,51.54,-2.48,United Kingdom,GB,6520,6520
South Elmsall,53.5959,-1.2726,United Kingdom,GB,6519,6519
Newbridge,51.67,-3.136,United Kingdom,GB,6509,6509
Danbury,51.715,0.582,United Kingdom,GB,6500,6500
Coleshill,52.499,-1.708,United Kingdom,GB,6481,6481
Olney,52.1529,-0.7015,United Kingdom,GB,6477,6477
Houston,55.867,-4.5521,United Kingdom,GB,6470,6430
Bothwell,55.8023,-4.0662,United Kingdom,GB,6458,6380
Whaley Bridge,53.3304,-1.9838,United Kingdom,GB,6455,6455
Pinhoe,50.7407,-3.4672,United Kingdom,GB,6454,6454
Girvan,55.2382,-4.8561,United Kingdom,GB,6450,6450
Peasedown Saint John,51.315,-2.424,United Kingdom,GB,6446,6446
Loanhead,55.878,-3.148,United Kingdom,GB,6440,6440
Market Weighton,53.8642,-0.6624,United Kingdom,GB,6429,6429
Castle Donnington,52.8444,-1.3377,United Kingdom,GB,6416,6416
Waltham,53.5165,-0.1021,United Kingdom,GB,6413,6413
Wheathampstead,51.812,-0.293,United Kingdom,GB,6410,6410
Weaverham,53.262,-2.577,United Kingdom,GB,6391,6391
Abercynon,51.6445,-3.3267,United Kingdom,GB,6390,6390
Egham,51.429,-0.548,United Kingdom,GB,6384,6384
Haworth,53.83,-1.96,United Kingdom,GB,6379,6379
Countesthorpe,52.555,-1.14,United Kingdom,GB,6377,6377
Treharris,51.6689,-3.31,United Kingdom,GB,6356,6356
Beith,55.7533,-4.6319,United Kingdom,GB,6346,6040
Long Ditton,51.385,-0.321,United Kingdom,GB,6343,6343
East Leake,52.832,-1.177,United Kingdom,GB,6337,6337
Chipping Norton,51.94,-1.55,United Kingdom,GB,6337,6337
Enderby,52.5881,-1.2092,United Kingdom,GB,6314,6314
Cheddleton,53.064,-2.043,United Kingdom,GB,6311,6311
Sauchie,56.1296,-3.7767,United Kingdom,GB,6310,6310
Burwell,52.275,0.327,United Kingdom,GB,6309,6309
Newbiggin-by-the-Sea,55.183,-1.515,United Kingdom,GB,6308,6308
Lydiate,53.536,-2.959,United Kingdom,GB,6308,6308
Thames Ditton,51.389,-0.331,United Kingdom,GB,6307,6307
Hadfield,53.46,-1.97,United Kingdom,GB,6305,6305
Swanscombe,51.4491,0.2993,United Kingdom,GB,6300,6300
Liss,51.0429,-0.8918,United Kingdom,GB,6291,6084
Stainforth,53.5958,-1.0253,United Kingdom,GB,6282,6282
Pontardulais,51.71,-4.04,United Kingdom,GB,6281,6281
Newarthill,55.81,-3.9333,United Kingdom,GB,6280,6280
Alcester,52.215,-1.876,United Kingdom,GB,6273,6273
Marshfield,51.5439,-3.0469,United Kingdom,GB,6270,6270
Burntisland,56.06,-3.231,United Kingdom,GB,6269,6269
Handforth,53.35,-2.216,United Kingdom,GB,6266,6266
Southbourne,50.845,-0.9081,United Kingdom,GB,6265,6265
Calstock,50.497,-4.21,United Kingdom,GB,6253,6253
Thrapston,52.397,-0.538,United Kingdom,GB,6239,6239
Chalford,51.7238,-2.1491,United Kingdom,GB,6215,6215
Altofts,53.697,-1.416,United Kingdom,GB,6198,6198
Blaby,52.5724,-1.1678,United Kingdom,GB,6194,6194
Stotfold,52.018,-0.228,United Kingdom,GB,6190,6190
Bursledon,50.8847,-1.3117,United Kingdom,GB,6188,6188
Garswood,53.488,-2.67,United Kingdom,GB,6183,6183
Frimley,51.3143,-0.7387,United Kingdom,GB,6178,6178
Bilton,52.3594,-1.29,United Kingdom,GB,6175,6175
Barrowford,53.851,-2.221,United Kingdom,GB,6171,6171
Landore,51.64,-3.94,United Kingdom,GB,6168,6168
Rhoose,51.3906,-3.3524,United Kingdom,GB,6160,6160
Withernsea,53.7285,0.0382,United Kingdom,GB,6159,5980
Colnbrook,51.4835,-0.5221,United Kingdom,GB,6157,6157
Malvern Link,52.1255,-2.3161,United Kingdom,GB,6155,6155
Bulkington,52.4769,-1.425,United Kingdom,GB,6146,6146
Magor,51.5798,-2.8312,United Kingdom,GB,6140,6140
Pembury,51.1456,0.3224,United Kingdom,GB,6128,6128
Waddington,53.1664,-0.5389,United Kingdom,GB,6122,6122
Kingsbridge,50.2833,-3.7765,United Kingdom,GB,6116,6116
Orsett,51.51,0.37,United Kingdom,GB,6115,6115
Wem,52.8536,-2.7267,United Kingdom,GB,6100,6100
Stonewood,51.445,0.256,United Kingdom,GB,6100,6100
Llantwit Fardre,51.5578,-3.3341,United Kingdom,GB,6099,6099
Hollington,50.875,0.548,United Kingdom,GB,6099,6099
Rowlands Gill,54.9209,-1.7441,United Kingdom,GB,6096,6096
Cottenham,52.2865,0.1244,United Kingdom,GB,6095,6095
Chipping Ongar,51.703,0.244,United Kingdom,GB,6093,6093
Kirriemuir,56.6692,-3.0051,United Kingdom,GB,6061,6061
Blaenavon,51.7736,-3.0828,United Kingdom,GB,6055,6055
Balloch,56.002,-4.58,United Kingdom,GB,6050,6050
Strensall,54.0401,-1.0344,United Kingdom,GB,6047,6047
Long Ashton,51.43,-2.65,United Kingdom,GB,6044,6044
Amble,55.3306,-1.5783,United Kingdom,GB,6025,6025
Freckleton,53.753,-2.867,United Kingdom,GB,6019,6019
Seaton Carew,54.6628,-1.1888,United Kingdom,GB,6018,6018
Stansted Mountfitchet,51.898,0.198,United Kingdom,GB,6011,6011
Adlington,53.6165,-2.5986,United Kingdom,GB,6010,6010
Market Deeping,52.6776,-0.3173,United Kingdom,GB,6008,6008
Tadcaster,53.8852,-1.262,United Kingdom,GB,6003,6003
Staplehurst,51.164,0.553,United Kingdom,GB,6003,6003
Fordingbridge,50.9275,-1.7901,United Kingdom,GB,5998,5998
Highbridge,51.2189,-2.973,United Kingdom,GB,5986,5986
New Inn,51.691,-3.009,United Kingdom,GB,5986,5986
Ventnor,50.5976,-1.2084,United Kingdom,GB,5976,5976
Broughton,53.169,-2.985,United Kingdom,GB,5974,5974
Great Warley Street,51.607,0.3,United Kingdom,GB,5973,5973
Farnham Royal,51.5386,-0.6164,United Kingdom,GB,5972,5972
Porth,51.6138,-3.4095,United Kingdom,GB,5970,5970
Great Burstead,51.604,0.445,United Kingdom,GB,5968,5968
Colney Heath,51.7353,-0.2564,United Kingdom,GB,5962,5962
Lea Town,53.774,-2.795,United Kingdom,GB,5962,5962
Saltburn-by-the-Sea,54.5828,-0.9732,United Kingdom,GB,5958,5958
Burghfield,51.411,-1.042,United Kingdom,GB,5955,5955
Godstone,51.248,-0.064,United Kingdom,GB,5949,5949
Welshpool,52.6597,-3.1473,United Kingdom,GB,5948,5948
Crumlin,51.6798,-3.1368,United Kingdom,GB,5947,5947
Ormesby,54.5492,-1.1817,United Kingdom,GB,5942,5942
Pagham,50.7708,-0.7448,United Kingdom,GB,5941,5941
East Preston,50.8104,-0.4819,United Kingdom,GB,5938,5938
Blythebridge,52.9704,-2.0709,United Kingdom,GB,5931,5931
Chalfont Saint Giles,51.632,-0.576,United Kingdom,GB,5925,5925
Chinnor,51.702,-0.911,United Kingdom,GB,5924,5924
Okehampton,50.7388,-4.0041,United Kingdom,GB,5922,5922
Briton Ferry,51.64,-3.83,United Kingdom,GB,5911,5911
Tillicoultry,56.153,-3.742,United Kingdom,GB,5900,4650
Honley,53.6027,-1.7921,United Kingdom,GB,5897,5897
Studley,52.2696,-1.8915,United Kingdom,GB,5879,5879
Bramley,51.329,-1.0613,United Kingdom,GB,5875,5875
Govan,55.8615,-4.3083,United Kingdom,GB,5860,5860
Barrow upon Soar,52.7517,-1.15,United Kingdom,GB,5856,5856
Wellesbourne Hastings,52.1943,-1.5947,United Kingdom,GB,5849,5849
Wigton,54.823,-3.159,United Kingdom,GB,5831,5831
Locharbriggs,55.1,-3.5833,United Kingdom,GB,5830,5830
Stoke Mandeville,51.7861,-0.7914,United Kingdom,GB,5825,5825
Steyning,50.8868,-0.3279,United Kingdom,GB,5812,5812
Dyce,57.2031,-2.192,United Kingdom,GB,5811,5811
Ilminster,50.9262,-2.9114,United Kingdom,GB,5808,5808
Helmshore,53.687,-2.329,United Kingdom,GB,5805,5805
Gildersome,53.759,-1.6322,United Kingdom,GB,5804,5804
Nailsworth,51.6954,-2.2234,United Kingdom,GB,5794,5794
East Calder,55.896,-3.462,United Kingdom,GB,5790,5260
Callington,50.503,-4.316,United Kingdom,GB,5786,5786
Selkirk,55.55,-2.84,United Kingdom,GB,5784,5784
Crofton,53.657,-1.427,United Kingdom,GB,5781,5781
Gorebridge,55.8436,-3.05,United Kingdom,GB,5777,5777
Hungerford,51.414,-1.515,United Kingdom,GB,5767,5767
Axminster,50.781,-3,United Kingdom,GB,5761,5761
Ibstock,52.687,-1.401,United Kingdom,GB,5760,5760
Cheddar,51.279,-2.778,United Kingdom,GB,5755,5755
Cumnor,51.735,-1.332,United Kingdom,GB,5755,5755
Ballingry,56.15,-3.3333,United Kingdom,GB,5740,5740
Galleywood,51.697,0.474,United Kingdom,GB,5738,5738
Oundle,52.48,-0.472,United Kingdom,GB,5735,5735
Treherbert,51.6722,-3.5306,United Kingdom,GB,5727,5727
Broughton,53.5638,-0.5465,United Kingdom,GB,5726,5726
Sidley,50.86,0.47,United Kingdom,GB,5718,5718
Hoylake,53.39,-3.18,United Kingdom,GB,5710,5710
Pinxton,53.0905,-1.3237,United Kingdom,GB,5699,5699
Cheadle,53.3933,-2.2113,United Kingdom,GB,5698,5698
Preesall,53.917,-2.967,United Kingdom,GB,5694,5694
Hethersett,52.5983,1.1833,United Kingdom,GB,5691,5691
Ash Vale,51.27,-0.72,United Kingdom,GB,5686,5686
Markfield,52.6878,-1.2775,United Kingdom,GB,5681,5681
Hordle,50.7603,-1.6212,United Kingdom,GB,5654,5654
Tarleton,53.678,-2.841,United Kingdom,GB,5652,5652
Littlemore,51.72,-1.227,United Kingdom,GB,5646,5646
Kelso,55.5985,-2.4336,United Kingdom,GB,5639,5639
Elderslie,55.8306,-4.4842,United Kingdom,GB,5634,5330
Humberston,53.5281,-0.0249,United Kingdom,GB,5634,5634
Wadsley,53.41,-1.52,United Kingdom,GB,5631,5631
Wotton-under-Edge,51.638,-2.349,United Kingdom,GB,5627,5627
West Byfleet,51.338,-0.5033,United Kingdom,GB,5626,5626
Brigg,53.5529,-0.485,United Kingdom,GB,5626,5626
Radstock,51.293,-2.448,United Kingdom,GB,5620,5620
Headley,51.1192,-0.8271,United Kingdom,GB,5613,5613
Leavesden Green,51.6967,-0.3991,United Kingdom,GB,5612,5612
Holmes Chapel,53.204,-2.353,United Kingdom,GB,5605,5605
Great Bookham,51.278,-0.373,United Kingdom,GB,5596,5596
Bagshot,51.3607,-0.6982,United Kingdom,GB,5592,5592
Blean,51.307,1.043,United Kingdom,GB,5589,5589
Great Wakering,51.5516,0.8165,United Kingdom,GB,5587,5587
Marchwood,50.89,-1.454,United Kingdom,GB,5586,5586
Arlesey,52.007,-0.2654,United Kingdom,GB,5584,5584
Askern,53.6167,-1.15,United Kingdom,GB,5570,5570
Pannal,53.9609,-1.5362,United Kingdom,GB,5562,5562
Carnforth,54.123,-2.766,United Kingdom,GB,5560,5560
Lexden,51.8833,0.8667,United Kingdom,GB,5549,5549
Gorleston-on-Sea,52.5757,1.7235,United Kingdom,GB,5548,5548
Hengoed,51.65,-3.23,United Kingdom,GB,5548,5548
Brynmawr,51.796,-3.183,United Kingdom,GB,5530,5530
Drighlington,53.7568,-1.6616,United Kingdom,GB,5528,5528
Chickerell,50.624,-2.5047,United Kingdom,GB,5515,5515
Hartford,53.245,-2.549,United Kingdom,GB,5515,5515
Leiston,52.206,1.579,United Kingdom,GB,5508,5508
Aylsham,52.79,1.256,United Kingdom,GB,5504,5504
Utley,53.88,-1.91,United Kingdom,GB,5500,5500
Longton,53.729,-2.797,United Kingdom,GB,5500,5500
Bowling,55.932,-4.494,United Kingdom,GB,5500,560
Dore,53.3268,-1.5345,United Kingdom,GB,5496,5496
Wareham,50.686,-2.1099,United Kingdom,GB,5496,5496
Barnard Castle,54.55,-1.92,United Kingdom,GB,5495,5495
Drayton,52.675,1.225,United Kingdom,GB,5489,5489
Balerno,55.8852,-3.3375,United Kingdom,GB,5486,5486
Tidenham,51.6605,-2.6435,United Kingdom,GB,5486,5486
Martlesham,52.0733,1.2818,United Kingdom,GB,5478,5478
Tetbury,51.636,-2.158,United Kingdom,GB,5472,5472
Cockenzie,55.969,-2.962,United Kingdom,GB,5470,5470
Thorpe,51.4069,-0.5354,United Kingdom,GB,5465,5465
Rhuthun,53.115,-3.312,United Kingdom,GB,5461,5461
Wyke Regis,50.592,-2.475,United Kingdom,GB,5458,5458
Barton on Sea,50.7428,-1.6552,United Kingdom,GB,5454,5454
Griffithstown,51.6853,-3.0284,United Kingdom,GB,5450,5450
Shenfield,51.6297,0.3192,United Kingdom,GB,5432,5432
New Alresford,51.0907,-1.1612,United Kingdom,GB,5431,5431
Cardenden,56.133,-3.25,United Kingdom,GB,5420,5420
Ammanford,51.8,-3.993,United Kingdom,GB,5411,5411
Bilton,54.0099,-1.5359,United Kingdom,GB,5409,5409
Fishguard,51.9982,-4.9804,United Kingdom,GB,5407,5407
Perranzabuloe,50.326,-5.133,United Kingdom,GB,5406,5406
Illogan,50.25,-5.268,United Kingdom,GB,5404,5404
Dalry,55.711,-4.723,United Kingdom,GB,5398,5360
Brotton,54.568,-0.937,United Kingdom,GB,5394,5394
Lindfield,51.0135,-0.0833,United Kingdom,GB,5394,5394
Earls Barton,52.263,-0.746,United Kingdom,GB,5387,5387
Writtle,51.729,0.427,United Kingdom,GB,5383,5383
Malmesbury,51.584,-2.098,United Kingdom,GB,5380,5380
Kirton,52.9278,-0.0598,United Kingdom,GB,5371,5371
Freshwater,50.6826,-1.5249,United Kingdom,GB,5369,5369
Hartley,51.3868,0.3037,United Kingdom,GB,5359,5359
Abercarn,51.649,-3.135,United Kingdom,GB,5352,5352
Bidford-on-Avon,52.1644,-1.8567,United Kingdom,GB,5350,5350
Sollom,53.662,-2.825,United Kingdom,GB,5350,5350
Redbourn,51.8002,-0.3965,United Kingdom,GB,5344,5344
Newton Grange,55.868,-3.067,United Kingdom,GB,5341,5341
Cuddington,53.24,-2.6,United Kingdom,GB,5333,5333
Newmains,55.7832,-3.8771,United Kingdom,GB,5329,5329
Polmont,55.9908,-3.7064,United Kingdom,GB,5321,5320
Bourne End,51.5817,-0.7134,United Kingdom,GB,5320,5320
Neilston,55.7847,-4.4234,United Kingdom,GB,5320,5170
Wool,50.6789,-2.2189,United Kingdom,GB,5310,5310
Alness,57.695,-4.258,United Kingdom,GB,5310,5310
Paulton,51.3069,-2.5027,United Kingdom,GB,5303,5303
Murston,51.341,0.7524,United Kingdom,GB,5300,5300
Brayton,53.7682,-1.0907,United Kingdom,GB,5299,5299
Roundway,51.368,-1.981,United Kingdom,GB,5290,5290
Glyncorrwg,51.6776,-3.6292,United Kingdom,GB,5283,5283
Wincanton,51.0559,-2.4102,United Kingdom,GB,5272,5272
Keswick,54.5999,-3.1293,United Kingdom,GB,5243,5243
Tickhill,53.4305,-1.1135,United Kingdom,GB,5228,5228
Tettenhall,52.5983,-2.168,United Kingdom,GB,5225,5225
Sedgefield,54.65,-1.45,United Kingdom,GB,5211,5211
Measham,52.7061,-1.508,United Kingdom,GB,5209,5209
Newent,51.9302,-2.4048,United Kingdom,GB,5207,5207
Hunters Quay,55.9707,-4.9116,United Kingdom,GB,5198,5198
Ore,50.8721,0.6085,United Kingdom,GB,5195,5195
Edwinstowe,53.16,-1.07,United Kingdom,GB,5188,5188
Church,53.755,-2.386,United Kingdom,GB,5186,5186
Holytown,55.8229,-3.9701,United Kingdom,GB,5180,5160
Quorndon,52.7428,-1.17,United Kingdom,GB,5177,5177
Holmfirth,53.57,-1.787,United Kingdom,GB,5173,5173
Ruskington,53.0444,-0.3875,United Kingdom,GB,5169,5169
Waterbeach,52.2664,0.1908,United Kingdom,GB,5166,5166
Brixworth,52.329,-0.904,United Kingdom,GB,5162,5162
Woodville,52.769,-1.533,United Kingdom,GB,5161,5161
Pinchbeck,52.8147,-0.1605,United Kingdom,GB,5153,5153
Nursling,50.9449,-1.4727,United Kingdom,GB,5137,5137
Bungay,52.4496,1.4477,United Kingdom,GB,5127,5127
Kinross,56.205,-3.423,United Kingdom,GB,5120,5120
Cwmbach,51.7072,-3.4128,United Kingdom,GB,5117,5117
Llangefni,53.256,-4.314,United Kingdom,GB,5116,5116
Looe,50.354,-4.454,United Kingdom,GB,5112,5112
Great Meols,53.4014,-3.1553,United Kingdom,GB,5110,5110
Elstree,51.64,-0.3,United Kingdom,GB,5110,5110
South Molton,51.02,-3.83,United Kingdom,GB,5108,5108
Botley,50.9144,-1.27,United Kingdom,GB,5100,5100
Grangetown,54.58,-1.144,United Kingdom,GB,5088,5088
Oakley,51.251,-1.1764,United Kingdom,GB,5086,5086
Swanwick,53.075,-1.398,United Kingdom,GB,5084,5084
Baystonhill,52.6727,-2.7654,United Kingdom,GB,5079,5079
Middleton-on-Sea,50.7949,-0.6197,United Kingdom,GB,5077,5077
Kings Langley,51.7156,-0.4569,United Kingdom,GB,5072,5072
Harleston,52.4024,1.2996,United Kingdom,GB,5067,5067
Dartmouth,50.351,-3.579,United Kingdom,GB,5064,5064
Harlescott,52.7365,-2.7226,United Kingdom,GB,5060,5060
Turriff,57.539,-2.4611,United Kingdom,GB,5060,4960
Sheriff Hill,54.939,-1.586,United Kingdom,GB,5051,5051
Treforest,51.5878,-3.3222,United Kingdom,GB,5050,5050
Earlswood,51.228,-0.171,United Kingdom,GB,5049,5049
Duffield,52.989,-1.489,United Kingdom,GB,5046,5046
Chipping Sodbury,51.538,-2.394,United Kingdom,GB,5045,5045
Whiston,53.4,-1.32,United Kingdom,GB,5042,5042
Wirksworth,53.082,-1.574,United Kingdom,GB,5038,5038
Shipston on Stour,52.06,-1.623,United Kingdom,GB,5038,5038
Pyrford,51.3146,-0.5064,United Kingdom,GB,5022,5022
Heage,53.05,-1.447,United Kingdom,GB,5013,5013
Henfield,50.933,-0.277,United Kingdom,GB,5012,5012
Gresford,53.087,-2.966,United Kingdom,GB,5010,5010
Blackrod,53.5898,-2.5809,United Kingdom,GB,5001,5001
Marston Green,52.465,-1.74,United Kingdom,GB,5000,5000
Barton-le-Clay,51.9669,-0.4241,United Kingdom,GB,5000,5000
Galston,55.6004,-4.3798,United Kingdom,GB,5000,4740
Sacriston,54.817,-1.626,United Kingdom,GB,4999,4999
Thirsk,54.2327,-1.342,United Kingdom,GB,4998,4998
Loughor,51.6626,-4.0646,United Kingdom,GB,4991,4991
Hirwaun,51.7386,-3.4989,United Kingdom,GB,4990,4990
Sandwich,51.2747,1.3389,United Kingdom,GB,4985,4985
Speldhurst,51.1516,0.2219,United Kingdom,GB,4978,4978
Helsby,53.273,-2.77,United Kingdom,GB,4972,4972
Hurlford,55.5985,-4.452,United Kingdom,GB,4968,4620
Hilperton,51.33,-2.184,United Kingdom,GB,4967,4967
